{"type": "FeatureCollection", "features": [{"geometry": {"type": "Point", "coordinates": [111.21876409010049, 21.62529442326592]}, "properties": {"name": "电白县"}, "type": "Feature"}, {"geometry": {"type": "Point", "coordinates": [110.97224781989618, 22.018685834205844]}, "properties": {"name": "高州市"}, "type": "Feature"}, {"geometry": {"type": "Point", "coordinates": [110.51436216774877, 21.801242131873252]}, "properties": {"name": "化州市"}, "type": "Feature"}, {"geometry": {"type": "Point", "coordinates": [110.97765895358785, 21.54973017053533]}, "properties": {"name": "茂港区"}, "type": "Feature"}, {"geometry": {"type": "Point", "coordinates": [110.84686952281493, 21.6672469774456]}, "properties": {"name": "茂南区"}, "type": "Feature"}, {"geometry": {"type": "Point", "coordinates": [111.1359775032868, 22.448106238507364]}, "properties": {"name": "信宜市"}, "type": "Feature"}]}