{"type": "FeatureCollection", "features": [{"geometry": {"type": "Point", "coordinates": [102.0184024957298, 36.40368754359065]}, "properties": {"name": "平安县"}, "type": "Feature"}, {"geometry": {"type": "Point", "coordinates": [102.76345369104922, 36.12402079570468]}, "properties": {"name": "民和回族土族自治县"}, "type": "Feature"}, {"geometry": {"type": "Point", "coordinates": [102.45174357600958, 35.697244759492875]}, "properties": {"name": "循化撒拉族自治县"}, "type": "Feature"}, {"geometry": {"type": "Point", "coordinates": [102.21760433076166, 36.82724772636812]}, "properties": {"name": "互助土族自治县"}, "type": "Feature"}, {"geometry": {"type": "Point", "coordinates": [102.2242367099028, 36.06444228840563]}, "properties": {"name": "化隆回族自治县"}, "type": "Feature"}, {"geometry": {"type": "Point", "coordinates": [102.43530742851812, 36.51238069102929]}, "properties": {"name": "乐都县"}, "type": "Feature"}]}