{"type": "FeatureCollection", "features": [{"geometry": {"type": "Point", "coordinates": [96.98484198821156, 33.87741091017946]}, "properties": {"name": "称多县"}, "type": "Feature"}, {"geometry": {"type": "Point", "coordinates": [96.2544035700814, 32.16260246262497]}, "properties": {"name": "囊谦县"}, "type": "Feature"}, {"geometry": {"type": "Point", "coordinates": [95.56471590349993, 34.733879163219136]}, "properties": {"name": "曲麻莱县"}, "type": "Feature"}, {"geometry": {"type": "Point", "coordinates": [96.71816630907695, 32.88889846456254]}, "properties": {"name": "玉树县"}, "type": "Feature"}, {"geometry": {"type": "Point", "coordinates": [94.44554936727815, 32.96953029070469]}, "properties": {"name": "杂多县"}, "type": "Feature"}, {"geometry": {"type": "Point", "coordinates": [93.07201795773861, 34.734808791095006]}, "properties": {"name": "治多县"}, "type": "Feature"}]}