{"type": "FeatureCollection", "features": [{"geometry": {"type": "Point", "coordinates": [107.0923086018246, 40.858633467888026]}, "properties": {"name": "杭锦后旗"}, "type": "Feature"}, {"geometry": {"type": "Point", "coordinates": [107.39477715224155, 40.87392975576638]}, "properties": {"name": "临河区"}, "type": "Feature"}, {"geometry": {"type": "Point", "coordinates": [106.6609324398521, 41.28737237429031]}, "properties": {"name": "乌拉特后旗"}, "type": "Feature"}, {"geometry": {"type": "Point", "coordinates": [109.08416073602012, 40.86832709368043]}, "properties": {"name": "乌拉特前旗"}, "type": "Feature"}, {"geometry": {"type": "Point", "coordinates": [108.50023675086862, 41.61248457541671]}, "properties": {"name": "乌拉特中旗"}, "type": "Feature"}, {"geometry": {"type": "Point", "coordinates": [108.09784092192984, 41.043539869410424]}, "properties": {"name": "五原县"}, "type": "Feature"}, {"geometry": {"type": "Point", "coordinates": [106.56206577214718, 40.59114397205389]}, "properties": {"name": "磴口县"}, "type": "Feature"}]}