{"type": "FeatureCollection", "features": [{"geometry": {"type": "Point", "coordinates": [109.98945, 39.81788]}, "properties": {"name": "东胜区"}, "type": "Feature"}, {"geometry": {"type": "Point", "coordinates": [109.790076, 39.607472]}, "properties": {"name": "康巴什区"}, "type": "Feature"}, {"geometry": {"type": "Point", "coordinates": [110.040281, 40.404076]}, "properties": {"name": "达拉特旗"}, "type": "Feature"}, {"geometry": {"type": "Point", "coordinates": [111.238332, 39.865221]}, "properties": {"name": "准格尔旗"}, "type": "Feature"}, {"geometry": {"type": "Point", "coordinates": [107.48172, 38.183257]}, "properties": {"name": "鄂托克前旗"}, "type": "Feature"}, {"geometry": {"type": "Point", "coordinates": [107.982604, 39.095752]}, "properties": {"name": "鄂托克旗"}, "type": "Feature"}, {"geometry": {"type": "Point", "coordinates": [108.736324, 39.831789]}, "properties": {"name": "杭锦旗"}, "type": "Feature"}, {"geometry": {"type": "Point", "coordinates": [108.842454, 38.596611]}, "properties": {"name": "乌审旗"}, "type": "Feature"}, {"geometry": {"type": "Point", "coordinates": [109.787402, 39.604312]}, "properties": {"name": "伊金霍洛旗"}, "type": "Feature"}]}