{"type": "FeatureCollection", "features": [{"geometry": {"type": "Point", "coordinates": [120.60778134079375, 30.440482700776958]}, "properties": {"name": "海宁市"}, "type": "Feature"}, {"geometry": {"type": "Point", "coordinates": [120.90414720091137, 30.484821619056863]}, "properties": {"name": "海盐县"}, "type": "Feature"}, {"geometry": {"type": "Point", "coordinates": [120.8934030114171, 30.904191032748898]}, "properties": {"name": "嘉善县"}, "type": "Feature"}, {"geometry": {"type": "Point", "coordinates": [120.80501575968128, 30.713532979602345]}, "properties": {"name": "南湖区"}, "type": "Feature"}, {"geometry": {"type": "Point", "coordinates": [121.08424054419191, 30.73101533652296]}, "properties": {"name": "平湖市"}, "type": "Feature"}, {"geometry": {"type": "Point", "coordinates": [120.47862660843496, 30.626510559724306]}, "properties": {"name": "桐乡市"}, "type": "Feature"}, {"geometry": {"type": "Point", "coordinates": [120.69616983677805, 30.745406619684953]}, "properties": {"name": "秀洲区"}, "type": "Feature"}]}