{"type": "FeatureCollection", "features": [{"geometry": {"type": "Point", "coordinates": [112.03144381932796, 32.682065641141016]}, "properties": {"name": "邓州市"}, "type": "Feature"}, {"geometry": {"type": "Point", "coordinates": [112.97058451570328, 33.29395669525796]}, "properties": {"name": "方城县"}, "type": "Feature"}, {"geometry": {"type": "Point", "coordinates": [112.38734350406459, 33.44151273345906]}, "properties": {"name": "南召县"}, "type": "Feature"}, {"geometry": {"type": "Point", "coordinates": [111.81020178312843, 33.21000576478343]}, "properties": {"name": "内乡县"}, "type": "Feature"}, {"geometry": {"type": "Point", "coordinates": [112.9996973252371, 32.993499563849305]}, "properties": {"name": "社旗县"}, "type": "Feature"}, {"geometry": {"type": "Point", "coordinates": [112.89761433698834, 32.60352062294787]}, "properties": {"name": "唐河县"}, "type": "Feature"}, {"geometry": {"type": "Point", "coordinates": [113.37739088146807, 32.49546743221485]}, "properties": {"name": "桐柏县"}, "type": "Feature"}, {"geometry": {"type": "Point", "coordinates": [111.42888471686601, 33.41322336280625]}, "properties": {"name": "西峡县"}, "type": "Feature"}, {"geometry": {"type": "Point", "coordinates": [112.40792464190405, 32.517960204530354]}, "properties": {"name": "新野县"}, "type": "Feature"}, {"geometry": {"type": "Point", "coordinates": [112.17711585970177, 33.089745105899524]}, "properties": {"name": "镇平县"}, "type": "Feature"}, {"geometry": {"type": "Point", "coordinates": [111.39146050110692, 33.01887932288527]}, "properties": {"name": "淅川县"}, "type": "Feature"}, {"geometry": {"type": "Point", "coordinates": [112.63812070939666, 32.91895273987024]}, "properties": {"name": "宛城区"}, "type": "Feature"}, {"geometry": {"type": "Point", "coordinates": [112.43825993450746, 33.0559056440497]}, "properties": {"name": "卧龙区"}, "type": "Feature"}]}