{"type": "FeatureCollection", "features": [{"geometry": {"type": "Point", "coordinates": [84.21507793768886, 46.67306429713682]}, "properties": {"name": "额敏县"}, "type": "Feature"}, {"geometry": {"type": "Point", "coordinates": [85.66696742018487, 46.415719620712586]}, "properties": {"name": "和布克赛尔蒙古自治县"}, "type": "Feature"}, {"geometry": {"type": "Point", "coordinates": [85.46439003225125, 44.227333268883335]}, "properties": {"name": "沙湾县"}, "type": "Feature"}, {"geometry": {"type": "Point", "coordinates": [83.26123375888854, 46.859516010180016]}, "properties": {"name": "塔城市"}, "type": "Feature"}, {"geometry": {"type": "Point", "coordinates": [83.97757910768357, 45.747650908489085]}, "properties": {"name": "托里县"}, "type": "Feature"}, {"geometry": {"type": "Point", "coordinates": [84.3261857047511, 44.311621109904344]}, "properties": {"name": "乌苏市"}, "type": "Feature"}, {"geometry": {"type": "Point", "coordinates": [82.89376755633235, 45.96254804878128]}, "properties": {"name": "裕民县"}, "type": "Feature"}]}