{"type": "FeatureCollection", "features": [{"geometry": {"type": "Point", "coordinates": [86.89366495209023, 41.89209765161958]}, "properties": {"name": "博湖县"}, "type": "Feature"}, {"geometry": {"type": "Point", "coordinates": [85.03650788549314, 42.8376561052805]}, "properties": {"name": "和静县"}, "type": "Feature"}, {"geometry": {"type": "Point", "coordinates": [87.50152836801966, 42.10638209482029]}, "properties": {"name": "和硕县"}, "type": "Feature"}, {"geometry": {"type": "Point", "coordinates": [85.79414108436119, 41.6372036423667]}, "properties": {"name": "库尔勒市"}, "type": "Feature"}, {"geometry": {"type": "Point", "coordinates": [84.52451181540681, 41.783144813237755]}, "properties": {"name": "轮台县"}, "type": "Feature"}, {"geometry": {"type": "Point", "coordinates": [85.96880185731379, 37.09573835548499]}, "properties": {"name": "且末县"}, "type": "Feature"}, {"geometry": {"type": "Point", "coordinates": [89.77641101741015, 38.0831669863283]}, "properties": {"name": "若羌县"}, "type": "Feature"}, {"geometry": {"type": "Point", "coordinates": [87.03859943043781, 41.21266888752629]}, "properties": {"name": "尉犁县"}, "type": "Feature"}, {"geometry": {"type": "Point", "coordinates": [86.09948887021429, 42.11393467256355]}, "properties": {"name": "焉耆回族自治县"}, "type": "Feature"}]}