{"type": "FeatureCollection", "features": [{"geometry": {"type": "Point", "coordinates": [80.46640903219458, 40.78223633559883]}, "properties": {"name": "阿克苏市"}, "type": "Feature"}, {"geometry": {"type": "Point", "coordinates": [80.34927260579848, 40.419029065705764]}, "properties": {"name": "阿瓦提县"}, "type": "Feature"}, {"geometry": {"type": "Point", "coordinates": [81.90148237044328, 42.13810637909438]}, "properties": {"name": "拜城县"}, "type": "Feature"}, {"geometry": {"type": "Point", "coordinates": [78.91467799355334, 40.469924183622986]}, "properties": {"name": "柯坪县"}, "type": "Feature"}, {"geometry": {"type": "Point", "coordinates": [83.33605124261325, 41.8142446952705]}, "properties": {"name": "库车县"}, "type": "Feature"}, {"geometry": {"type": "Point", "coordinates": [82.96599659680852, 40.93068840155161]}, "properties": {"name": "沙雅县"}, "type": "Feature"}, {"geometry": {"type": "Point", "coordinates": [80.26880012059453, 41.63017618527317]}, "properties": {"name": "温宿县"}, "type": "Feature"}, {"geometry": {"type": "Point", "coordinates": [79.3202079844632, 41.28681276809466]}, "properties": {"name": "乌什县"}, "type": "Feature"}, {"geometry": {"type": "Point", "coordinates": [82.14183462188436, 41.41456000177138]}, "properties": {"name": "新和县"}, "type": "Feature"}]}