{"type": "FeatureCollection", "features": [{"geometry": {"type": "Point", "coordinates": [116.503288, 31.754491]}, "properties": {"name": "金安区"}, "type": "Feature"}, {"geometry": {"type": "Point", "coordinates": [116.494543, 31.750692]}, "properties": {"name": "裕安区"}, "type": "Feature"}, {"geometry": {"type": "Point", "coordinates": [115.913594, 31.84768]}, "properties": {"name": "叶集区"}, "type": "Feature"}, {"geometry": {"type": "Point", "coordinates": [116.278875, 32.341305]}, "properties": {"name": "霍邱县"}, "type": "Feature"}, {"geometry": {"type": "Point", "coordinates": [116.944088, 31.462848]}, "properties": {"name": "舒城县"}, "type": "Feature"}, {"geometry": {"type": "Point", "coordinates": [115.878514, 31.681624]}, "properties": {"name": "金寨县"}, "type": "Feature"}, {"geometry": {"type": "Point", "coordinates": [116.333078, 31.402456]}, "properties": {"name": "霍山县"}, "type": "Feature"}]}