{"type": "FeatureCollection", "features": [{"geometry": {"type": "Point", "coordinates": [117.03068158223567, 30.517666691389522]}, "properties": {"name": "大观区"}, "type": "Feature"}, {"geometry": {"type": "Point", "coordinates": [116.80083265773, 30.54867616647877]}, "properties": {"name": "怀宁县"}, "type": "Feature"}, {"geometry": {"type": "Point", "coordinates": [116.53482049540602, 30.78268798364125]}, "properties": {"name": "潜山县"}, "type": "Feature"}, {"geometry": {"type": "Point", "coordinates": [116.19622969664326, 30.15945711754407]}, "properties": {"name": "宿松县"}, "type": "Feature"}, {"geometry": {"type": "Point", "coordinates": [116.14917147743613, 30.497937412229614]}, "properties": {"name": "太湖县"}, "type": "Feature"}, {"geometry": {"type": "Point", "coordinates": [116.95894050649899, 30.945466726864698]}, "properties": {"name": "桐城市"}, "type": "Feature"}, {"geometry": {"type": "Point", "coordinates": [116.66213750541772, 30.26193602676981]}, "properties": {"name": "望江县"}, "type": "Feature"}, {"geometry": {"type": "Point", "coordinates": [117.09904945291939, 30.584892555937866]}, "properties": {"name": "宜秀区"}, "type": "Feature"}, {"geometry": {"type": "Point", "coordinates": [117.05234388605933, 30.5088442405395]}, "properties": {"name": "迎江区"}, "type": "Feature"}, {"geometry": {"type": "Point", "coordinates": [116.25137492899039, 30.925740564337715]}, "properties": {"name": "岳西县"}, "type": "Feature"}, {"geometry": {"type": "Point", "coordinates": [117.3865145459923, 30.86540916363024]}, "properties": {"name": "枞阳县"}, "type": "Feature"}]}