{"type": "FeatureCollection", "features": [{"geometry": {"type": "Point", "coordinates": [116.82780664052541, 32.64547318608489]}, "properties": {"name": "八公山区"}, "type": "Feature"}, {"geometry": {"type": "Point", "coordinates": [117.11466782786589, 32.669003643179586]}, "properties": {"name": "大通区"}, "type": "Feature"}, {"geometry": {"type": "Point", "coordinates": [116.59378215179878, 32.76788627351707]}, "properties": {"name": "凤台县"}, "type": "Feature"}, {"geometry": {"type": "Point", "coordinates": [116.85391395881285, 32.76346154688491]}, "properties": {"name": "潘集区"}, "type": "Feature"}, {"geometry": {"type": "Point", "coordinates": [116.98831682129736, 32.639148488376044]}, "properties": {"name": "田家庵区"}, "type": "Feature"}, {"geometry": {"type": "Point", "coordinates": [116.86767097338915, 32.61740661099609]}, "properties": {"name": "谢家集区"}, "type": "Feature"}]}