{"type": "FeatureCollection", "features": [{"geometry": {"type": "Point", "coordinates": [103.2234154890476, 29.04734247865786]}, "properties": {"name": "峨边彝族自治县"}, "type": "Feature"}, {"geometry": {"type": "Point", "coordinates": [103.40426822164478, 29.4820589861391]}, "properties": {"name": "峨眉山市"}, "type": "Feature"}, {"geometry": {"type": "Point", "coordinates": [103.0614156933259, 29.282345141234746]}, "properties": {"name": "金口河区"}, "type": "Feature"}, {"geometry": {"type": "Point", "coordinates": [104.03089538605337, 29.633281969918087]}, "properties": {"name": "井研县"}, "type": "Feature"}, {"geometry": {"type": "Point", "coordinates": [103.5103549942772, 28.777045081284353]}, "properties": {"name": "马边彝族自治县"}, "type": "Feature"}, {"geometry": {"type": "Point", "coordinates": [103.59435514061927, 29.33484021199672]}, "properties": {"name": "沙湾区"}, "type": "Feature"}, {"geometry": {"type": "Point", "coordinates": [103.76294710075074, 29.599123931915354]}, "properties": {"name": "市中区"}, "type": "Feature"}, {"geometry": {"type": "Point", "coordinates": [103.84854488506753, 29.415521642327185]}, "properties": {"name": "五通桥区"}, "type": "Feature"}, {"geometry": {"type": "Point", "coordinates": [103.82886397409982, 29.0229170521755]}, "properties": {"name": "沐川县"}, "type": "Feature"}, {"geometry": {"type": "Point", "coordinates": [103.98932688211711, 29.26538325582226]}, "properties": {"name": "犍为县"}, "type": "Feature"}, {"geometry": {"type": "Point", "coordinates": [103.53819894136176, 29.77910219668275]}, "properties": {"name": "夹江县"}, "type": "Feature"}]}