{"type": "FeatureCollection", "features": [{"geometry": {"type": "Point", "coordinates": [102.20031100226743, 27.31762679110561]}, "properties": {"name": "德昌县"}, "type": "Feature"}, {"geometry": {"type": "Point", "coordinates": [102.21242295770232, 26.618453733378256]}, "properties": {"name": "会理县"}, "type": "Feature"}, {"geometry": {"type": "Point", "coordinates": [102.07872282288527, 28.521984501625315]}, "properties": {"name": "冕宁县"}, "type": "Feature"}, {"geometry": {"type": "Point", "coordinates": [100.90672164442277, 28.380643169720393]}, "properties": {"name": "木里藏族自治县"}, "type": "Feature"}, {"geometry": {"type": "Point", "coordinates": [102.58891544101962, 27.53165933399047]}, "properties": {"name": "普格县"}, "type": "Feature"}, {"geometry": {"type": "Point", "coordinates": [102.10833624437957, 27.87285554395992]}, "properties": {"name": "西昌市"}, "type": "Feature"}, {"geometry": {"type": "Point", "coordinates": [102.41417411209424, 28.200172766169104]}, "properties": {"name": "喜德县"}, "type": "Feature"}, {"geometry": {"type": "Point", "coordinates": [101.4170830908371, 27.63698657203916]}, "properties": {"name": "盐源县"}, "type": "Feature"}, {"geometry": {"type": "Point", "coordinates": [103.21176972787518, 27.689964497376977]}, "properties": {"name": "金阳县"}, "type": "Feature"}, {"geometry": {"type": "Point", "coordinates": [103.49016978457927, 28.253907870588545]}, "properties": {"name": "雷波县"}, "type": "Feature"}, {"geometry": {"type": "Point", "coordinates": [103.11005932758279, 28.43033950667145]}, "properties": {"name": "美姑县"}, "type": "Feature"}, {"geometry": {"type": "Point", "coordinates": [102.85734064688347, 27.609130421569493]}, "properties": {"name": "布拖县"}, "type": "Feature"}, {"geometry": {"type": "Point", "coordinates": [102.76404322659353, 29.006181996503994]}, "properties": {"name": "甘洛县"}, "type": "Feature"}, {"geometry": {"type": "Point", "coordinates": [102.71923570393115, 26.572745797189988]}, "properties": {"name": "会东县"}, "type": "Feature"}, {"geometry": {"type": "Point", "coordinates": [102.69033786149876, 27.08014952280971]}, "properties": {"name": "宁南县"}, "type": "Feature"}, {"geometry": {"type": "Point", "coordinates": [102.60504619757754, 28.585819724581388]}, "properties": {"name": "越西县"}, "type": "Feature"}, {"geometry": {"type": "Point", "coordinates": [102.83299265870376, 28.011183754065804]}, "properties": {"name": "昭觉县"}, "type": "Feature"}]}