{"type": "FeatureCollection", "features": [{"geometry": {"type": "Point", "coordinates": [106.24347160840439, 30.77189674344708]}, "properties": {"name": "高坪区"}, "type": "Feature"}, {"geometry": {"type": "Point", "coordinates": [105.94239534755991, 30.683008952609516]}, "properties": {"name": "嘉陵区"}, "type": "Feature"}, {"geometry": {"type": "Point", "coordinates": [105.93149204637322, 31.33591361088808]}, "properties": {"name": "南部县"}, "type": "Feature"}, {"geometry": {"type": "Point", "coordinates": [106.4097483823817, 30.993424198278948]}, "properties": {"name": "蓬安县"}, "type": "Feature"}, {"geometry": {"type": "Point", "coordinates": [106.11126279076511, 30.960501574165104]}, "properties": {"name": "顺庆区"}, "type": "Feature"}, {"geometry": {"type": "Point", "coordinates": [105.83709857839429, 31.06511357326014]}, "properties": {"name": "西充县"}, "type": "Feature"}, {"geometry": {"type": "Point", "coordinates": [106.49515148632736, 31.442142303701733]}, "properties": {"name": "仪陇县"}, "type": "Feature"}, {"geometry": {"type": "Point", "coordinates": [106.71211629720806, 31.175472506291257]}, "properties": {"name": "营山县"}, "type": "Feature"}, {"geometry": {"type": "Point", "coordinates": [106.05728143240329, 31.623105846885924]}, "properties": {"name": "阆中市"}, "type": "Feature"}]}