{"type": "FeatureCollection", "features": [{"geometry": {"type": "Point", "coordinates": [104.90554584872928, 28.535652201664647]}, "properties": {"name": "长宁县"}, "type": "Feature"}, {"geometry": {"type": "Point", "coordinates": [104.71060054673585, 28.769627979446017]}, "properties": {"name": "翠屏区"}, "type": "Feature"}, {"geometry": {"type": "Point", "coordinates": [104.60657273458088, 28.489329543743896]}, "properties": {"name": "高县"}, "type": "Feature"}, {"geometry": {"type": "Point", "coordinates": [105.09740727248924, 28.669708501999228]}, "properties": {"name": "江安县"}, "type": "Feature"}, {"geometry": {"type": "Point", "coordinates": [104.92889486424843, 28.893652387169745]}, "properties": {"name": "南溪区"}, "type": "Feature"}, {"geometry": {"type": "Point", "coordinates": [104.0289395939089, 28.71711657813014]}, "properties": {"name": "屏山县"}, "type": "Feature"}, {"geometry": {"type": "Point", "coordinates": [105.1103351740121, 28.26555714315279]}, "properties": {"name": "兴文县"}, "type": "Feature"}, {"geometry": {"type": "Point", "coordinates": [104.39146016330112, 28.843854819840356]}, "properties": {"name": "宜宾县"}, "type": "Feature"}, {"geometry": {"type": "Point", "coordinates": [104.81506105068227, 28.202932806655173]}, "properties": {"name": "珙县"}, "type": "Feature"}, {"geometry": {"type": "Point", "coordinates": [104.57016330605533, 28.04228395539764]}, "properties": {"name": "筠连县"}, "type": "Feature"}]}