{"type": "FeatureCollection", "features": [{"geometry": {"type": "Point", "coordinates": [104.27402861644231, 31.004691040282008]}, "properties": {"name": "广汉市"}, "type": "Feature"}, {"geometry": {"type": "Point", "coordinates": [104.5129804973903, 31.321435593384166]}, "properties": {"name": "罗江县"}, "type": "Feature"}, {"geometry": {"type": "Point", "coordinates": [104.13332301458809, 31.422727441230272]}, "properties": {"name": "绵竹市"}, "type": "Feature"}, {"geometry": {"type": "Point", "coordinates": [104.0189801854139, 31.281052675193255]}, "properties": {"name": "什邡市"}, "type": "Feature"}, {"geometry": {"type": "Point", "coordinates": [104.80383733101733, 30.903910116049]}, "properties": {"name": "中江县"}, "type": "Feature"}, {"geometry": {"type": "Point", "coordinates": [104.4208784675589, 31.195116159784273]}, "properties": {"name": "旌阳区"}, "type": "Feature"}]}