{"type": "FeatureCollection", "features": [{"geometry": {"type": "Point", "coordinates": [104.38078614726923, 31.58735378567085]}, "properties": {"name": "安县"}, "type": "Feature"}, {"geometry": {"type": "Point", "coordinates": [104.26179032791299, 31.926573028503835]}, "properties": {"name": "北川羌族自治县"}, "type": "Feature"}, {"geometry": {"type": "Point", "coordinates": [104.66771856451265, 31.461348909474943]}, "properties": {"name": "涪城区"}, "type": "Feature"}, {"geometry": {"type": "Point", "coordinates": [104.94655676400475, 31.927534730084385]}, "properties": {"name": "江油市"}, "type": "Feature"}, {"geometry": {"type": "Point", "coordinates": [104.34307717290383, 32.503904470607836]}, "properties": {"name": "平武县"}, "type": "Feature"}, {"geometry": {"type": "Point", "coordinates": [105.04349980714784, 31.130841906082914]}, "properties": {"name": "三台县"}, "type": "Feature"}, {"geometry": {"type": "Point", "coordinates": [105.4518105645085, 31.26834181526921]}, "properties": {"name": "盐亭县"}, "type": "Feature"}, {"geometry": {"type": "Point", "coordinates": [104.93039468871916, 31.5455677864773]}, "properties": {"name": "游仙区"}, "type": "Feature"}, {"geometry": {"type": "Point", "coordinates": [105.16522661948436, 31.663625275052453]}, "properties": {"name": "梓潼县"}, "type": "Feature"}]}