{"type": "FeatureCollection", "features": [{"geometry": {"type": "Point", "coordinates": [104.92546796690817, 29.379510850118745]}, "properties": {"name": "大安区"}, "type": "Feature"}, {"geometry": {"type": "Point", "coordinates": [104.99676620170933, 29.12614906698198]}, "properties": {"name": "富顺县"}, "type": "Feature"}, {"geometry": {"type": "Point", "coordinates": [104.58465698772262, 29.322101538825688]}, "properties": {"name": "贡井区"}, "type": "Feature"}, {"geometry": {"type": "Point", "coordinates": [104.26768017991155, 29.427556385822452]}, "properties": {"name": "荣县"}, "type": "Feature"}, {"geometry": {"type": "Point", "coordinates": [104.86568316392292, 29.258350610082932]}, "properties": {"name": "沿滩区"}, "type": "Feature"}, {"geometry": {"type": "Point", "coordinates": [104.71647802036215, 29.29473912945341]}, "properties": {"name": "自流井区"}, "type": "Feature"}]}