{"type": "FeatureCollection", "features": [{"geometry": {"type": "Point", "coordinates": [107.12299995818972, 22.81736606722134]}, "properties": {"name": "大新县"}, "type": "Feature"}, {"geometry": {"type": "Point", "coordinates": [107.78399127249288, 22.55324365354832]}, "properties": {"name": "扶绥县"}, "type": "Feature"}, {"geometry": {"type": "Point", "coordinates": [107.41729140782596, 22.52547072614758]}, "properties": {"name": "江州区"}, "type": "Feature"}, {"geometry": {"type": "Point", "coordinates": [106.87434604557716, 22.43538258742833]}, "properties": {"name": "龙州县"}, "type": "Feature"}, {"geometry": {"type": "Point", "coordinates": [107.27647796486677, 22.048195077965275]}, "properties": {"name": "宁明县"}, "type": "Feature"}, {"geometry": {"type": "Point", "coordinates": [106.82809215515171, 22.110839082741364]}, "properties": {"name": "凭祥市"}, "type": "Feature"}, {"geometry": {"type": "Point", "coordinates": [107.08041041062307, 23.110020503751468]}, "properties": {"name": "天等县"}, "type": "Feature"}]}