{"type": "FeatureCollection", "features": [{"geometry": {"type": "Point", "coordinates": [110.292445, 25.278544]}, "properties": {"name": "秀峰区"}, "type": "Feature"}, {"geometry": {"type": "Point", "coordinates": [110.300783, 25.301334]}, "properties": {"name": "叠彩区"}, "type": "Feature"}, {"geometry": {"type": "Point", "coordinates": [110.284882, 25.261986]}, "properties": {"name": "象山区"}, "type": "Feature"}, {"geometry": {"type": "Point", "coordinates": [110.317577, 25.254339]}, "properties": {"name": "七星区"}, "type": "Feature"}, {"geometry": {"type": "Point", "coordinates": [110.305667, 25.077646]}, "properties": {"name": "雁山区"}, "type": "Feature"}, {"geometry": {"type": "Point", "coordinates": [110.205487, 25.246257]}, "properties": {"name": "临桂区"}, "type": "Feature"}, {"geometry": {"type": "Point", "coordinates": [110.494699, 24.77534]}, "properties": {"name": "阳朔县"}, "type": "Feature"}, {"geometry": {"type": "Point", "coordinates": [110.325712, 25.408541]}, "properties": {"name": "灵川县"}, "type": "Feature"}, {"geometry": {"type": "Point", "coordinates": [111.072989, 25.929897]}, "properties": {"name": "全州县"}, "type": "Feature"}, {"geometry": {"type": "Point", "coordinates": [110.670783, 25.609554]}, "properties": {"name": "兴安县"}, "type": "Feature"}, {"geometry": {"type": "Point", "coordinates": [109.989208, 24.986692]}, "properties": {"name": "永福县"}, "type": "Feature"}, {"geometry": {"type": "Point", "coordinates": [111.160248, 25.489098]}, "properties": {"name": "灌阳县"}, "type": "Feature"}, {"geometry": {"type": "Point", "coordinates": [110.009423, 25.796428]}, "properties": {"name": "龙胜各族自治县"}, "type": "Feature"}, {"geometry": {"type": "Point", "coordinates": [110.642587, 26.0342]}, "properties": {"name": "资源县"}, "type": "Feature"}, {"geometry": {"type": "Point", "coordinates": [110.642821, 24.632216]}, "properties": {"name": "平乐县"}, "type": "Feature"}, {"geometry": {"type": "Point", "coordinates": [110.400149, 24.497786]}, "properties": {"name": "荔浦县"}, "type": "Feature"}, {"geometry": {"type": "Point", "coordinates": [110.82952, 24.833612]}, "properties": {"name": "恭城瑶族自治县"}, "type": "Feature"}]}