{"type": "FeatureCollection", "features": [{"geometry": {"type": "Point", "coordinates": [106.5597190468696, 23.370045514715237]}, "properties": {"name": "德保县"}, "type": "Feature"}, {"geometry": {"type": "Point", "coordinates": [106.35301708517153, 23.174437053013342]}, "properties": {"name": "靖西县"}, "type": "Feature"}, {"geometry": {"type": "Point", "coordinates": [106.53787206560759, 24.802922842139846]}, "properties": {"name": "乐业县"}, "type": "Feature"}, {"geometry": {"type": "Point", "coordinates": [106.63838018684989, 24.381318480132887]}, "properties": {"name": "凌云县"}, "type": "Feature"}, {"geometry": {"type": "Point", "coordinates": [105.29202816029895, 24.657667815714873]}, "properties": {"name": "隆林各族自治县"}, "type": "Feature"}, {"geometry": {"type": "Point", "coordinates": [105.83218261824983, 23.261318010416154]}, "properties": {"name": "那坡县"}, "type": "Feature"}, {"geometry": {"type": "Point", "coordinates": [107.58711097358443, 23.531406727273776]}, "properties": {"name": "平果县"}, "type": "Feature"}, {"geometry": {"type": "Point", "coordinates": [107.18559857883285, 23.620112760602257]}, "properties": {"name": "田东县"}, "type": "Feature"}, {"geometry": {"type": "Point", "coordinates": [105.98901612762957, 24.379260460744522]}, "properties": {"name": "田林县"}, "type": "Feature"}, {"geometry": {"type": "Point", "coordinates": [106.79138444804373, 23.76811219286469]}, "properties": {"name": "田阳县"}, "type": "Feature"}, {"geometry": {"type": "Point", "coordinates": [105.0258044694103, 24.41272989350074]}, "properties": {"name": "西林县"}, "type": "Feature"}, {"geometry": {"type": "Point", "coordinates": [106.47001424463296, 23.928330508718794]}, "properties": {"name": "右江区"}, "type": "Feature"}]}