{"type": "FeatureCollection", "features": [{"geometry": {"type": "Point", "coordinates": [100.64965467315443, 25.87963562472332]}, "properties": {"name": "宾川县"}, "type": "Feature"}, {"geometry": {"type": "Point", "coordinates": [100.1931236152914, 25.728507134917113]}, "properties": {"name": "大理市"}, "type": "Feature"}, {"geometry": {"type": "Point", "coordinates": [99.89436872251846, 26.05174014555535]}, "properties": {"name": "洱源县"}, "type": "Feature"}, {"geometry": {"type": "Point", "coordinates": [100.29283718152274, 26.37796955655851]}, "properties": {"name": "鹤庆县"}, "type": "Feature"}, {"geometry": {"type": "Point", "coordinates": [99.73270600353094, 26.434408096075]}, "properties": {"name": "剑川县"}, "type": "Feature"}, {"geometry": {"type": "Point", "coordinates": [100.59298841840052, 25.160247394963427]}, "properties": {"name": "弥渡县"}, "type": "Feature"}, {"geometry": {"type": "Point", "coordinates": [100.41332004454604, 24.882633145535806]}, "properties": {"name": "南涧彝族自治县"}, "type": "Feature"}, {"geometry": {"type": "Point", "coordinates": [100.12899773715858, 25.26236348520306]}, "properties": {"name": "巍山彝族回族自治县"}, "type": "Feature"}, {"geometry": {"type": "Point", "coordinates": [100.77304474398042, 25.54438201799669]}, "properties": {"name": "祥云县"}, "type": "Feature"}, {"geometry": {"type": "Point", "coordinates": [99.86778536003034, 25.574177544578568]}, "properties": {"name": "漾濞彝族自治县"}, "type": "Feature"}, {"geometry": {"type": "Point", "coordinates": [99.58552646007517, 25.4059260262556]}, "properties": {"name": "永平县"}, "type": "Feature"}, {"geometry": {"type": "Point", "coordinates": [99.33634172966501, 25.84779154061547]}, "properties": {"name": "云龙县"}, "type": "Feature"}]}