{"type": "FeatureCollection", "features": [{"geometry": {"type": "Point", "coordinates": [103.91294435689626, 27.932770671085176]}, "properties": {"name": "大关县"}, "type": "Feature"}, {"geometry": {"type": "Point", "coordinates": [103.43245981585451, 27.244640626911313]}, "properties": {"name": "鲁甸县"}, "type": "Feature"}, {"geometry": {"type": "Point", "coordinates": [104.25038284203306, 28.52147233496376]}, "properties": {"name": "水富县"}, "type": "Feature"}, {"geometry": {"type": "Point", "coordinates": [103.99760021192813, 28.535247978873638]}, "properties": {"name": "绥江县"}, "type": "Feature"}, {"geometry": {"type": "Point", "coordinates": [105.00609558046402, 27.861898379361683]}, "properties": {"name": "威信县"}, "type": "Feature"}, {"geometry": {"type": "Point", "coordinates": [104.21573035002965, 28.105346456773432]}, "properties": {"name": "盐津县"}, "type": "Feature"}, {"geometry": {"type": "Point", "coordinates": [104.30106112742608, 27.65842781589265]}, "properties": {"name": "彝良县"}, "type": "Feature"}, {"geometry": {"type": "Point", "coordinates": [103.65131546420835, 27.957634241466792]}, "properties": {"name": "永善县"}, "type": "Feature"}, {"geometry": {"type": "Point", "coordinates": [103.55074022848787, 27.42303973686612]}, "properties": {"name": "昭阳区"}, "type": "Feature"}, {"geometry": {"type": "Point", "coordinates": [104.8474786636573, 27.61041578566006]}, "properties": {"name": "镇雄县"}, "type": "Feature"}, {"geometry": {"type": "Point", "coordinates": [103.18061695515853, 26.933926045267064]}, "properties": {"name": "巧家县"}, "type": "Feature"}]}