{"type": "FeatureCollection", "features": [{"geometry": {"type": "Point", "coordinates": [101.71005043094671, 22.632808952669787]}, "properties": {"name": "江城哈尼族彝族自治县"}, "type": "Feature"}, {"geometry": {"type": "Point", "coordinates": [100.73438813430894, 24.380615584085575]}, "properties": {"name": "景东彝族自治县"}, "type": "Feature"}, {"geometry": {"type": "Point", "coordinates": [100.56070057006254, 23.34817763809692]}, "properties": {"name": "景谷傣族彝族自治县"}, "type": "Feature"}, {"geometry": {"type": "Point", "coordinates": [99.88266636575938, 22.6390012844432]}, "properties": {"name": "澜沧拉祜族自治县"}, "type": "Feature"}, {"geometry": {"type": "Point", "coordinates": [99.47481374704103, 22.30986602381105]}, "properties": {"name": "孟连傣族拉祜族佤族自治县"}, "type": "Feature"}, {"geometry": {"type": "Point", "coordinates": [101.60986574905861, 23.37578234140522]}, "properties": {"name": "墨江哈尼族自治县"}, "type": "Feature"}, {"geometry": {"type": "Point", "coordinates": [101.16221659841638, 23.078849492386556]}, "properties": {"name": "宁洱哈尼族彝族自治县"}, "type": "Feature"}, {"geometry": {"type": "Point", "coordinates": [100.85592437539269, 22.75247109665596]}, "properties": {"name": "思茅区"}, "type": "Feature"}, {"geometry": {"type": "Point", "coordinates": [99.5371915123768, 22.687796563702502]}, "properties": {"name": "西盟佤族自治县"}, "type": "Feature"}, {"geometry": {"type": "Point", "coordinates": [100.96993471603469, 23.95371914658051]}, "properties": {"name": "镇沅彝族哈尼族拉祜族自治县"}, "type": "Feature"}]}