{"type": "FeatureCollection", "features": [{"geometry": {"type": "Point", "coordinates": [101.31162185438127, 24.90138141554086]}, "properties": {"name": "楚雄市"}, "type": "Feature"}, {"geometry": {"type": "Point", "coordinates": [101.31110413146239, 25.89203511651894]}, "properties": {"name": "大姚县"}, "type": "Feature"}, {"geometry": {"type": "Point", "coordinates": [102.04421649984722, 25.198614417941553]}, "properties": {"name": "禄丰县"}, "type": "Feature"}, {"geometry": {"type": "Point", "coordinates": [101.56696455352926, 25.406766615321196]}, "properties": {"name": "牟定县"}, "type": "Feature"}, {"geometry": {"type": "Point", "coordinates": [101.01203764126147, 25.084185697069916]}, "properties": {"name": "南华县"}, "type": "Feature"}, {"geometry": {"type": "Point", "coordinates": [101.67169112287434, 24.51907388008708]}, "properties": {"name": "双柏县"}, "type": "Feature"}, {"geometry": {"type": "Point", "coordinates": [102.19813625179232, 25.68109589734147]}, "properties": {"name": "武定县"}, "type": "Feature"}, {"geometry": {"type": "Point", "coordinates": [101.20847290108217, 25.502468224011334]}, "properties": {"name": "姚安县"}, "type": "Feature"}, {"geometry": {"type": "Point", "coordinates": [101.5743075276049, 26.15752011005972]}, "properties": {"name": "永仁县"}, "type": "Feature"}, {"geometry": {"type": "Point", "coordinates": [101.86462008854028, 25.742846123887016]}, "properties": {"name": "元谋县"}, "type": "Feature"}]}