{"type": "FeatureCollection", "features": [{"geometry": {"type": "Point", "coordinates": [102.25094968581668, 24.21724173130335]}, "properties": {"name": "峨山彝族自治县"}, "type": "Feature"}, {"geometry": {"type": "Point", "coordinates": [102.51682111239204, 24.36474471701703]}, "properties": {"name": "红塔区"}, "type": "Feature"}, {"geometry": {"type": "Point", "coordinates": [102.73930464514474, 24.35349823394039]}, "properties": {"name": "江川县"}, "type": "Feature"}, {"geometry": {"type": "Point", "coordinates": [102.66531694236232, 24.106786803823184]}, "properties": {"name": "通海县"}, "type": "Feature"}, {"geometry": {"type": "Point", "coordinates": [101.75440476702856, 24.023194748308857]}, "properties": {"name": "新平彝族傣族自治县"}, "type": "Feature"}, {"geometry": {"type": "Point", "coordinates": [102.09444758727352, 24.671003602356095]}, "properties": {"name": "易门县"}, "type": "Feature"}, {"geometry": {"type": "Point", "coordinates": [101.98242549546836, 23.58981252030403]}, "properties": {"name": "元江哈尼族彝族傣族自治县"}, "type": "Feature"}, {"geometry": {"type": "Point", "coordinates": [102.98348739205602, 24.241680101584514]}, "properties": {"name": "华宁县"}, "type": "Feature"}, {"geometry": {"type": "Point", "coordinates": [102.95239996905647, 24.719659831291775]}, "properties": {"name": "澄江县"}, "type": "Feature"}]}