{"type": "FeatureCollection", "features": [{"geometry": {"type": "Point", "coordinates": [106.25622530988156, 38.66135857429396]}, "properties": {"name": "贺兰县"}, "type": "Feature"}, {"geometry": {"type": "Point", "coordinates": [106.20501951354551, 38.47506396556597]}, "properties": {"name": "金凤区"}, "type": "Feature"}, {"geometry": {"type": "Point", "coordinates": [106.47544043613267, 37.96540119151663]}, "properties": {"name": "灵武市"}, "type": "Feature"}, {"geometry": {"type": "Point", "coordinates": [105.99995657789266, 38.547058782568655]}, "properties": {"name": "西夏区"}, "type": "Feature"}, {"geometry": {"type": "Point", "coordinates": [106.4292758855987, 38.451848974384724]}, "properties": {"name": "兴庆区"}, "type": "Feature"}, {"geometry": {"type": "Point", "coordinates": [106.08711818069798, 38.29504570629063]}, "properties": {"name": "永宁县"}, "type": "Feature"}]}