{"features": [{"geometry": {"coordinates": [120.8057, 50.2185], "type": "Point"}, "properties": {"name": "呼伦贝尔市"}, "type": "Feature"}, {"geometry": {"coordinates": [102.019, 40.1001], "type": "Point"}, "properties": {"name": "阿拉善盟"}, "type": "Feature"}, {"geometry": {"coordinates": [115.6421, 44.176], "type": "Point"}, "properties": {"name": "锡林郭勒盟"}, "type": "Feature"}, {"geometry": {"coordinates": [108.9734, 39.2487], "type": "Point"}, "properties": {"name": "鄂尔多斯市"}, "type": "Feature"}, {"geometry": {"coordinates": [118.6743, 43.2642], "type": "Point"}, "properties": {"name": "赤峰市"}, "type": "Feature"}, {"geometry": {"coordinates": [107.5562, 41.3196], "type": "Point"}, "properties": {"name": "巴彦淖尔市"}, "type": "Feature"}, {"geometry": {"coordinates": [121.4758, 43.9673], "type": "Point"}, "properties": {"name": "通辽市"}, "type": "Feature"}, {"geometry": {"coordinates": [112.5769, 41.77], "type": "Point"}, "properties": {"name": "乌兰察布市"}, "type": "Feature"}, {"geometry": {"coordinates": [121.3879, 46.1426], "type": "Point"}, "properties": {"name": "兴安盟"}, "type": "Feature"}, {"geometry": {"coordinates": [110.3467, 41.4899], "type": "Point"}, "properties": {"name": "包头市"}, "type": "Feature"}, {"geometry": {"coordinates": [111.4124, 40.4901], "type": "Point"}, "properties": {"name": "呼和浩特市"}, "type": "Feature"}, {"geometry": {"coordinates": [106.886, 39.4739], "type": "Point"}, "properties": {"name": "乌海市"}, "type": "Feature"}], "type": "FeatureCollection"}