{"features": [{"geometry": {"coordinates": [112.9175, 24.3292], "type": "Point"}, "properties": {"name": "清远市"}, "type": "Feature"}, {"geometry": {"coordinates": [113.7964, 24.7028], "type": "Point"}, "properties": {"name": "韶关市"}, "type": "Feature"}, {"geometry": {"coordinates": [110.3577, 20.9894], "type": "Point"}, "properties": {"name": "湛江市"}, "type": "Feature"}, {"geometry": {"coordinates": [116.1255, 24.1534], "type": "Point"}, "properties": {"name": "梅州市"}, "type": "Feature"}, {"geometry": {"coordinates": [114.917, 23.9722], "type": "Point"}, "properties": {"name": "河源市"}, "type": "Feature"}, {"geometry": {"coordinates": [112.1265, 23.5822], "type": "Point"}, "properties": {"name": "肇庆市"}, "type": "Feature"}, {"geometry": {"coordinates": [114.6204, 23.1647], "type": "Point"}, "properties": {"name": "惠州市"}, "type": "Feature"}, {"geometry": {"coordinates": [111.0059, 22.0221], "type": "Point"}, "properties": {"name": "茂名市"}, "type": "Feature"}, {"geometry": {"coordinates": [112.6318, 22.1484], "type": "Point"}, "properties": {"name": "江门市"}, "type": "Feature"}, {"geometry": {"coordinates": [111.8298, 22.0715], "type": "Point"}, "properties": {"name": "阳江市"}, "type": "Feature"}, {"geometry": {"coordinates": [111.7859, 22.8516], "type": "Point"}, "properties": {"name": "云浮市"}, "type": "Feature"}, {"geometry": {"coordinates": [113.5107, 23.2196], "type": "Point"}, "properties": {"name": "广州市"}, "type": "Feature"}, {"geometry": {"coordinates": [115.5762, 23.0438], "type": "Point"}, "properties": {"name": "汕尾市"}, "type": "Feature"}, {"geometry": {"coordinates": [116.1255, 23.313], "type": "Point"}, "properties": {"name": "揭阳市"}, "type": "Feature"}, {"geometry": {"coordinates": [113.7305, 22.1155], "type": "Point"}, "properties": {"name": "珠海市"}, "type": "Feature"}, {"geometry": {"coordinates": [112.8955, 23.1097], "type": "Point"}, "properties": {"name": "佛山市"}, "type": "Feature"}, {"geometry": {"coordinates": [116.7847, 23.8293], "type": "Point"}, "properties": {"name": "潮州市"}, "type": "Feature"}, {"geometry": {"coordinates": [117.1692, 23.3405], "type": "Point"}, "properties": {"name": "汕头市"}, "type": "Feature"}, {"geometry": {"coordinates": [114.5435, 22.5439], "type": "Point"}, "properties": {"name": "深圳市"}, "type": "Feature"}, {"geometry": {"coordinates": [113.8953, 22.901], "type": "Point"}, "properties": {"name": "东莞市"}, "type": "Feature"}, {"geometry": {"coordinates": [113.4229, 22.478], "type": "Point"}, "properties": {"name": "中山市"}, "type": "Feature"}], "type": "FeatureCollection"}