{"center": [106.6113, 26.9385], "features": [{"geometry": {"coordinates": [106.908, 28.1744], "type": "Point"}, "properties": {"name": "遵义市"}, "type": "Feature"}, {"geometry": {"coordinates": [108.4241, 26.4166], "type": "Point"}, "properties": {"name": "黔东南苗族侗族自治州"}, "type": "Feature"}, {"geometry": {"coordinates": [105.1611, 27.0648], "type": "Point"}, "properties": {"name": "毕节地区"}, "type": "Feature"}, {"geometry": {"coordinates": [107.2485, 25.8398], "type": "Point"}, "properties": {"name": "黔南布依族苗族自治州"}, "type": "Feature"}, {"geometry": {"coordinates": [108.6218, 28.0096], "type": "Point"}, "properties": {"name": "铜仁地区"}, "type": "Feature"}, {"geometry": {"coordinates": [105.5347, 25.3949], "type": "Point"}, "properties": {"name": "黔西南布依族苗族自治州"}, "type": "Feature"}, {"geometry": {"coordinates": [104.7546, 26.0925], "type": "Point"}, "properties": {"name": "六盘水市"}, "type": "Feature"}, {"geometry": {"coordinates": [105.9082, 25.9882], "type": "Point"}, "properties": {"name": "安顺市"}, "type": "Feature"}, {"geometry": {"coordinates": [106.6992, 26.7682], "type": "Point"}, "properties": {"name": "贵阳市"}, "type": "Feature"}], "type": "FeatureCollection"}