{"features": [{"geometry": {"coordinates": [108.8196, 28.8666], "type": "Point"}, "properties": {"name": "酉阳土家族苗族自治县"}, "type": "Feature"}, {"geometry": {"coordinates": [109.3909, 30.9265], "type": "Point"}, "properties": {"name": "奉节县"}, "type": "Feature"}, {"geometry": {"coordinates": [109.3359, 31.4813], "type": "Point"}, "properties": {"name": "巫溪县"}, "type": "Feature"}, {"geometry": {"coordinates": [108.4131, 31.2561], "type": "Point"}, "properties": {"name": "开县"}, "type": "Feature"}, {"geometry": {"coordinates": [108.2043, 29.3994], "type": "Point"}, "properties": {"name": "彭水苗族土家族自治县"}, "type": "Feature"}, {"geometry": {"coordinates": [108.8306, 31.0089], "type": "Point"}, "properties": {"name": "云阳县"}, "type": "Feature"}, {"geometry": {"coordinates": [108.3911, 30.6958], "type": "Point"}, "properties": {"name": "万州区"}, "type": "Feature"}, {"geometry": {"coordinates": [108.7756, 31.9098], "type": "Point"}, "properties": {"name": "城口县"}, "type": "Feature"}, {"geometry": {"coordinates": [106.2158, 28.9874], "type": "Point"}, "properties": {"name": "江津区"}, "type": "Feature"}, {"geometry": {"coordinates": [108.2813, 30.1025], "type": "Point"}, "properties": {"name": "石柱土家族自治县"}, "type": "Feature"}, {"geometry": {"coordinates": [109.8853, 31.1188], "type": "Point"}, "properties": {"name": "巫山县"}, "type": "Feature"}, {"geometry": {"coordinates": [107.3364, 29.6796], "type": "Point"}, "properties": {"name": "涪陵区"}, "type": "Feature"}, {"geometry": {"coordinates": [107.8418, 29.9048], "type": "Point"}, "properties": {"name": "丰都县"}, "type": "Feature"}, {"geometry": {"coordinates": [107.655, 29.35], "type": "Point"}, "properties": {"name": "武隆县"}, "type": "Feature"}, {"geometry": {"coordinates": [107.1716, 29.1302], "type": "Point"}, "properties": {"name": "南川区"}, "type": "Feature"}, {"geometry": {"coordinates": [109.0173, 28.5205], "type": "Point"}, "properties": {"name": "秀山土家族苗族自治县"}, "type": "Feature"}, {"geometry": {"coordinates": [108.7207, 29.4708], "type": "Point"}, "properties": {"name": "黔江区"}, "type": "Feature"}, {"geometry": {"coordinates": [106.3257, 30.108], "type": "Point"}, "properties": {"name": "合川区"}, "type": "Feature"}, {"geometry": {"coordinates": [106.6553, 28.8171], "type": "Point"}, "properties": {"name": "綦江县"}, "type": "Feature"}, {"geometry": {"coordinates": [107.8967, 30.3223], "type": "Point"}, "properties": {"name": "忠县"}, "type": "Feature"}, {"geometry": {"coordinates": [107.7429, 30.6519], "type": "Point"}, "properties": {"name": "梁平县"}, "type": "Feature"}, {"geometry": {"coordinates": [106.7322, 29.4214], "type": "Point"}, "properties": {"name": "巴南区"}, "type": "Feature"}, {"geometry": {"coordinates": [105.7764, 30.1135], "type": "Point"}, "properties": {"name": "潼南县"}, "type": "Feature"}, {"geometry": {"coordinates": [105.8643, 29.2566], "type": "Point"}, "properties": {"name": "永川区"}, "type": "Feature"}, {"geometry": {"coordinates": [107.4573, 30.2454], "type": "Point"}, "properties": {"name": "垫江县"}, "type": "Feature"}, {"geometry": {"coordinates": [106.7212, 29.8499], "type": "Point"}, "properties": {"name": "渝北区"}, "type": "Feature"}, {"geometry": {"coordinates": [107.1606, 29.9762], "type": "Point"}, "properties": {"name": "长寿区"}, "type": "Feature"}, {"geometry": {"coordinates": [105.7544, 29.6136], "type": "Point"}, "properties": {"name": "大足县"}, "type": "Feature"}, {"geometry": {"coordinates": [106.0291, 29.8059], "type": "Point"}, "properties": {"name": "铜梁县"}, "type": "Feature"}, {"geometry": {"coordinates": [105.5127, 29.4708], "type": "Point"}, "properties": {"name": "荣昌县"}, "type": "Feature"}, {"geometry": {"coordinates": [106.2048, 29.5807], "type": "Point"}, "properties": {"name": "璧山县"}, "type": "Feature"}, {"geometry": {"coordinates": [106.5674, 29.8883], "type": "Point"}, "properties": {"name": "北碚区"}, "type": "Feature"}, {"geometry": {"coordinates": [106.908, 28.9325], "type": "Point"}, "properties": {"name": "万盛区"}, "type": "Feature"}, {"geometry": {"coordinates": [106.3586, 29.4049], "type": "Point"}, "properties": {"name": "九龙坡区"}, "type": "Feature"}, {"geometry": {"coordinates": [106.3696, 29.6191], "type": "Point"}, "properties": {"name": "沙坪坝区"}, "type": "Feature"}, {"geometry": {"coordinates": [106.6663, 29.5367], "type": "Point"}, "properties": {"name": "南岸区"}, "type": "Feature"}, {"geometry": {"coordinates": [106.8311, 29.6191], "type": "Point"}, "properties": {"name": "江北区"}, "type": "Feature"}, {"geometry": {"coordinates": [106.4905, 29.4214], "type": "Point"}, "properties": {"name": "大渡口区"}, "type": "Feature"}, {"geometry": {"coordinates": [105.7874, 29.4928], "type": "Point"}, "properties": {"name": "双桥区"}, "type": "Feature"}, {"geometry": {"coordinates": [106.5344, 29.5477], "type": "Point"}, "properties": {"name": "渝中区"}, "type": "Feature"}], "type": "FeatureCollection"}