{"type": "FeatureCollection", "features": [{"geometry": {"type": "Point", "coordinates": [117.80481802612782, 25.834874779837275]}, "properties": {"name": "大田县"}, "type": "Feature"}, {"geometry": {"type": "Point", "coordinates": [116.79420927466822, 26.802000677532632]}, "properties": {"name": "建宁县"}, "type": "Feature"}, {"geometry": {"type": "Point", "coordinates": [117.41671183135149, 26.735375949101307]}, "properties": {"name": "将乐县"}, "type": "Feature"}, {"geometry": {"type": "Point", "coordinates": [117.62232702212198, 26.310430671057894]}, "properties": {"name": "梅列区"}, "type": "Feature"}, {"geometry": {"type": "Point", "coordinates": [117.21096946095764, 26.424528549132567]}, "properties": {"name": "明溪县"}, "type": "Feature"}, {"geometry": {"type": "Point", "coordinates": [116.68857513445394, 26.32464895088946]}, "properties": {"name": "宁化县"}, "type": "Feature"}, {"geometry": {"type": "Point", "coordinates": [116.9044122155097, 26.099532182125845]}, "properties": {"name": "清流县"}, "type": "Feature"}, {"geometry": {"type": "Point", "coordinates": [117.52637870375703, 26.20117955448074]}, "properties": {"name": "三元区"}, "type": "Feature"}, {"geometry": {"type": "Point", "coordinates": [117.80711922464408, 26.404436993235613]}, "properties": {"name": "沙县"}, "type": "Feature"}, {"geometry": {"type": "Point", "coordinates": [117.12693863126547, 26.8795809916914]}, "properties": {"name": "泰宁县"}, "type": "Feature"}, {"geometry": {"type": "Point", "coordinates": [117.31768135683271, 25.90948066452682]}, "properties": {"name": "永安市"}, "type": "Feature"}, {"geometry": {"type": "Point", "coordinates": [118.25515507062201, 26.11293985137892]}, "properties": {"name": "尤溪县"}, "type": "Feature"}]}