{"type": "FeatureCollection", "features": [{"geometry": {"type": "Point", "coordinates": [119.27348212528568, 26.088130333503635]}, "properties": {"name": "鼓楼区"}, "type": "Feature"}, {"geometry": {"type": "Point", "coordinates": [119.33464468625479, 26.025998312512264]}, "properties": {"name": "仓山区"}, "type": "Feature"}, {"geometry": {"type": "Point", "coordinates": [119.64474891425996, 25.922362089182982]}, "properties": {"name": "长乐市"}, "type": "Feature"}, {"geometry": {"type": "Point", "coordinates": [119.44256845933351, 25.53511440206779]}, "properties": {"name": "福清市"}, "type": "Feature"}, {"geometry": {"type": "Point", "coordinates": [119.30621118183451, 26.228675628183936]}, "properties": {"name": "晋安区"}, "type": "Feature"}, {"geometry": {"type": "Point", "coordinates": [119.78242772502661, 26.282443297913915]}, "properties": {"name": "连江县"}, "type": "Feature"}, {"geometry": {"type": "Point", "coordinates": [119.52488772699087, 26.488808566900232]}, "properties": {"name": "罗源县"}, "type": "Feature"}, {"geometry": {"type": "Point", "coordinates": [119.51235348773375, 26.080342109769862]}, "properties": {"name": "马尾区"}, "type": "Feature"}, {"geometry": {"type": "Point", "coordinates": [119.11487138732535, 26.2039296827621]}, "properties": {"name": "闽侯县"}, "type": "Feature"}, {"geometry": {"type": "Point", "coordinates": [118.78155353417088, 26.267535393597658]}, "properties": {"name": "闽清县"}, "type": "Feature"}, {"geometry": {"type": "Point", "coordinates": [119.75333552721048, 25.513091594358585]}, "properties": {"name": "平潭县"}, "type": "Feature"}, {"geometry": {"type": "Point", "coordinates": [119.32236849461557, 26.05964909861986]}, "properties": {"name": "台江区"}, "type": "Feature"}, {"geometry": {"type": "Point", "coordinates": [118.77370996781575, 25.867154536656162]}, "properties": {"name": "永泰县"}, "type": "Feature"}]}