{"type": "FeatureCollection", "features": [{"geometry": {"type": "Point", "coordinates": [111.17084200891426, 32.5885856045171]}, "properties": {"name": "丹江口市"}, "type": "Feature"}, {"geometry": {"type": "Point", "coordinates": [110.66737693142599, 32.06135447818006]}, "properties": {"name": "房县"}, "type": "Feature"}, {"geometry": {"type": "Point", "coordinates": [110.78426361715664, 32.55179889238739]}, "properties": {"name": "茅箭区"}, "type": "Feature"}, {"geometry": {"type": "Point", "coordinates": [110.18129965079447, 33.04458853143283]}, "properties": {"name": "郧西县"}, "type": "Feature"}, {"geometry": {"type": "Point", "coordinates": [110.71322133971007, 32.84628322987938]}, "properties": {"name": "郧县"}, "type": "Feature"}, {"geometry": {"type": "Point", "coordinates": [110.66522610344389, 32.643463738616354]}, "properties": {"name": "张湾区"}, "type": "Feature"}, {"geometry": {"type": "Point", "coordinates": [110.05527475034856, 32.15993324602289]}, "properties": {"name": "竹山县"}, "type": "Feature"}, {"geometry": {"type": "Point", "coordinates": [109.80380549578729, 32.02519626887068]}, "properties": {"name": "竹溪县"}, "type": "Feature"}]}