{"type": "FeatureCollection", "features": [{"geometry": {"type": "Point", "coordinates": [113.83636697707794, 29.237968486008405]}, "properties": {"name": "通城县"}, "type": "Feature"}, {"geometry": {"type": "Point", "coordinates": [113.94274334727999, 30.010414639439997]}, "properties": {"name": "嘉鱼县"}, "type": "Feature"}, {"geometry": {"type": "Point", "coordinates": [114.41016231477407, 29.833352954868662]}, "properties": {"name": "咸安区"}, "type": "Feature"}, {"geometry": {"type": "Point", "coordinates": [113.85759580097466, 29.73532486569823]}, "properties": {"name": "赤壁市"}, "type": "Feature"}, {"geometry": {"type": "Point", "coordinates": [114.04878771902709, 29.42785653487545]}, "properties": {"name": "崇阳县"}, "type": "Feature"}, {"geometry": {"type": "Point", "coordinates": [114.66018287618604, 29.545853907344036]}, "properties": {"name": "通山县"}, "type": "Feature"}]}