{"type": "FeatureCollection", "features": [{"geometry": {"type": "Point", "coordinates": [113.65471771618961, 31.267123276594653]}, "properties": {"name": "安陆市"}, "type": "Feature"}, {"geometry": {"type": "Point", "coordinates": [114.31397119328311, 31.580200195109615]}, "properties": {"name": "大悟县"}, "type": "Feature"}, {"geometry": {"type": "Point", "coordinates": [113.65665101544997, 30.652310623512818]}, "properties": {"name": "汉川市"}, "type": "Feature"}, {"geometry": {"type": "Point", "coordinates": [113.98943276821592, 31.227553604399493]}, "properties": {"name": "孝昌县"}, "type": "Feature"}, {"geometry": {"type": "Point", "coordinates": [113.98167359838055, 30.966670315752214]}, "properties": {"name": "孝南区"}, "type": "Feature"}, {"geometry": {"type": "Point", "coordinates": [113.54185707537998, 30.952622991415318]}, "properties": {"name": "应城市"}, "type": "Feature"}, {"geometry": {"type": "Point", "coordinates": [113.7812379566632, 30.96970831130077]}, "properties": {"name": "云梦县"}, "type": "Feature"}]}