{"type": "FeatureCollection", "features": [{"geometry": {"type": "Point", "coordinates": [114.98044131997773, 30.20374535817753]}, "properties": {"name": "下陆区"}, "type": "Feature"}, {"geometry": {"type": "Point", "coordinates": [114.79569603112421, 30.07107719585363]}, "properties": {"name": "大冶市"}, "type": "Feature"}, {"geometry": {"type": "Point", "coordinates": [115.0527340295078, 30.233084468260067]}, "properties": {"name": "黄石港区"}, "type": "Feature"}, {"geometry": {"type": "Point", "coordinates": [114.8984893377083, 30.21165346308382]}, "properties": {"name": "铁山区"}, "type": "Feature"}, {"geometry": {"type": "Point", "coordinates": [115.14363047041283, 30.17736769192991]}, "properties": {"name": "西塞山区"}, "type": "Feature"}, {"geometry": {"type": "Point", "coordinates": [115.09730301392791, 29.799121720961228]}, "properties": {"name": "阳新县"}, "type": "Feature"}]}