{"type": "FeatureCollection", "features": [{"geometry": {"type": "Point", "coordinates": [103.67960119214293, 36.1268957271525]}, "properties": {"name": "安宁区"}, "type": "Feature"}, {"geometry": {"type": "Point", "coordinates": [103.87015465675478, 36.0888314453072]}, "properties": {"name": "城关区"}, "type": "Feature"}, {"geometry": {"type": "Point", "coordinates": [103.85764109810306, 36.401878745052514]}, "properties": {"name": "皋兰县"}, "type": "Feature"}, {"geometry": {"type": "Point", "coordinates": [103.10087446488906, 36.274410152845356]}, "properties": {"name": "红古区"}, "type": "Feature"}, {"geometry": {"type": "Point", "coordinates": [103.7487910656805, 35.97837111200357]}, "properties": {"name": "七里河区"}, "type": "Feature"}, {"geometry": {"type": "Point", "coordinates": [103.53249713565397, 36.113542846303396]}, "properties": {"name": "西固区"}, "type": "Feature"}, {"geometry": {"type": "Point", "coordinates": [104.24877119620271, 36.03408857809819]}, "properties": {"name": "榆中县"}, "type": "Feature"}, {"geometry": {"type": "Point", "coordinates": [103.23033903604481, 36.64317720556151]}, "properties": {"name": "永登县"}, "type": "Feature"}]}