{"type": "FeatureCollection", "features": [{"geometry": {"type": "Point", "coordinates": [104.62765107928452, 35.641462034405556]}, "properties": {"name": "安定区"}, "type": "Feature"}, {"geometry": {"type": "Point", "coordinates": [103.87029951825433, 35.52041007670014]}, "properties": {"name": "临洮县"}, "type": "Feature"}, {"geometry": {"type": "Point", "coordinates": [104.6505232084168, 35.09417330108954]}, "properties": {"name": "陇西县"}, "type": "Feature"}, {"geometry": {"type": "Point", "coordinates": [105.22139358543834, 35.20592929867874]}, "properties": {"name": "通渭县"}, "type": "Feature"}, {"geometry": {"type": "Point", "coordinates": [104.12122072797, 35.1580569934016]}, "properties": {"name": "渭源县"}, "type": "Feature"}, {"geometry": {"type": "Point", "coordinates": [104.37934700674748, 34.71030834698136]}, "properties": {"name": "漳县"}, "type": "Feature"}, {"geometry": {"type": "Point", "coordinates": [104.33205122867035, 34.413484217532535]}, "properties": {"name": "岷县"}, "type": "Feature"}]}