{"type": "FeatureCollection", "features": [{"geometry": {"type": "Point", "coordinates": [106.9967710555993, 35.198599266024985]}, "properties": {"name": "崇信县"}, "type": "Feature"}, {"geometry": {"type": "Point", "coordinates": [106.59954404555533, 35.19854211891027]}, "properties": {"name": "华亭县"}, "type": "Feature"}, {"geometry": {"type": "Point", "coordinates": [105.6800369355294, 35.42901123217743]}, "properties": {"name": "静宁县"}, "type": "Feature"}, {"geometry": {"type": "Point", "coordinates": [107.41083222035093, 35.055085801118395]}, "properties": {"name": "灵台县"}, "type": "Feature"}, {"geometry": {"type": "Point", "coordinates": [106.07617798629478, 35.237401439298985]}, "properties": {"name": "庄浪县"}, "type": "Feature"}, {"geometry": {"type": "Point", "coordinates": [106.75163688936944, 35.47853729862774]}, "properties": {"name": "崆峒区"}, "type": "Feature"}, {"geometry": {"type": "Point", "coordinates": [107.44280580312393, 35.35706211848684]}, "properties": {"name": "泾川县"}, "type": "Feature"}]}