{"type": "FeatureCollection", "features": [{"geometry": {"type": "Point", "coordinates": [108.25533546542903, 36.01101359375254]}, "properties": {"name": "合水县"}, "type": "Feature"}, {"geometry": {"type": "Point", "coordinates": [107.9660710311721, 36.46182205732349]}, "properties": {"name": "华池县"}, "type": "Feature"}, {"geometry": {"type": "Point", "coordinates": [106.97527016258604, 36.584487563871846]}, "properties": {"name": "环县"}, "type": "Feature"}, {"geometry": {"type": "Point", "coordinates": [108.11572525571016, 35.57731261776216]}, "properties": {"name": "宁县"}, "type": "Feature"}, {"geometry": {"type": "Point", "coordinates": [107.7359761337762, 36.04085195722209]}, "properties": {"name": "庆城县"}, "type": "Feature"}, {"geometry": {"type": "Point", "coordinates": [107.68057787324375, 35.64193757755132]}, "properties": {"name": "西峰区"}, "type": "Feature"}, {"geometry": {"type": "Point", "coordinates": [107.09551410693868, 35.890100460611535]}, "properties": {"name": "镇原县"}, "type": "Feature"}, {"geometry": {"type": "Point", "coordinates": [108.32464125362765, 35.39977241500277]}, "properties": {"name": "正宁县"}, "type": "Feature"}]}