{"type": "FeatureCollection", "features": [{"geometry": {"type": "Point", "coordinates": [130.41389020495055, 46.81134485760761]}, "properties": {"name": "东风区"}, "type": "Feature"}, {"geometry": {"type": "Point", "coordinates": [134.2771477173465, 47.96307933474216]}, "properties": {"name": "抚远县"}, "type": "Feature"}, {"geometry": {"type": "Point", "coordinates": [132.56661555993415, 47.108450409201296]}, "properties": {"name": "富锦市"}, "type": "Feature"}, {"geometry": {"type": "Point", "coordinates": [130.27322420141164, 46.77737027882748]}, "properties": {"name": "郊区"}, "type": "Feature"}, {"geometry": {"type": "Point", "coordinates": [130.3886622451918, 46.79598583250895]}, "properties": {"name": "前进区"}, "type": "Feature"}, {"geometry": {"type": "Point", "coordinates": [130.14947126776045, 47.01096114827712]}, "properties": {"name": "汤原县"}, "type": "Feature"}, {"geometry": {"type": "Point", "coordinates": [133.20454746013306, 47.84119866632004]}, "properties": {"name": "同江市"}, "type": "Feature"}, {"geometry": {"type": "Point", "coordinates": [130.37759531268495, 46.81945696021738]}, "properties": {"name": "向阳区"}, "type": "Feature"}, {"geometry": {"type": "Point", "coordinates": [130.84682851148523, 46.92528383069889]}, "properties": {"name": "桦川县"}, "type": "Feature"}, {"geometry": {"type": "Point", "coordinates": [130.5858645901442, 46.32800763866087]}, "properties": {"name": "桦南县"}, "type": "Feature"}]}