{"type": "FeatureCollection", "features": [{"geometry": {"type": "Point", "coordinates": [132.36043652700803, 46.37258874702075]}, "properties": {"name": "宝清县"}, "type": "Feature"}, {"geometry": {"type": "Point", "coordinates": [131.52150337124831, 46.54353505758751]}, "properties": {"name": "宝山区"}, "type": "Feature"}, {"geometry": {"type": "Point", "coordinates": [131.1265611975004, 46.75107277253977]}, "properties": {"name": "集贤县"}, "type": "Feature"}, {"geometry": {"type": "Point", "coordinates": [131.1626728029687, 46.64806771588418]}, "properties": {"name": "尖山区"}, "type": "Feature"}, {"geometry": {"type": "Point", "coordinates": [131.16767222289664, 46.501709594524726]}, "properties": {"name": "岭东区"}, "type": "Feature"}, {"geometry": {"type": "Point", "coordinates": [133.5716913750318, 47.001824226417355]}, "properties": {"name": "饶河县"}, "type": "Feature"}, {"geometry": {"type": "Point", "coordinates": [131.2920356853935, 46.67129920847766]}, "properties": {"name": "四方台区"}, "type": "Feature"}, {"geometry": {"type": "Point", "coordinates": [131.84910010072875, 46.75235970001114]}, "properties": {"name": "友谊县"}, "type": "Feature"}]}