{"type": "FeatureCollection", "features": [{"geometry": {"type": "Point", "coordinates": [129.53300609632225, 44.47494805539378]}, "properties": {"name": "西安区"}, "type": "Feature"}, {"geometry": {"type": "Point", "coordinates": [131.03986688609157, 44.39335930592593]}, "properties": {"name": "绥芬河市"}, "type": "Feature"}, {"geometry": {"type": "Point", "coordinates": [129.50385406928623, 44.70092873778008]}, "properties": {"name": "爱民区"}, "type": "Feature"}, {"geometry": {"type": "Point", "coordinates": [129.82792803702793, 44.3911429405102]}, "properties": {"name": "东安区"}, "type": "Feature"}, {"geometry": {"type": "Point", "coordinates": [130.89229636066108, 44.03121398314953]}, "properties": {"name": "东宁县"}, "type": "Feature"}, {"geometry": {"type": "Point", "coordinates": [129.18116998815512, 44.872827891227736]}, "properties": {"name": "海林市"}, "type": "Feature"}, {"geometry": {"type": "Point", "coordinates": [130.00954018195998, 45.36238389543229]}, "properties": {"name": "林口县"}, "type": "Feature"}, {"geometry": {"type": "Point", "coordinates": [130.37840170698357, 44.57286485695272]}, "properties": {"name": "穆棱市"}, "type": "Feature"}, {"geometry": {"type": "Point", "coordinates": [129.23958836945533, 44.04300092667567]}, "properties": {"name": "宁安市"}, "type": "Feature"}, {"geometry": {"type": "Point", "coordinates": [129.778568057101, 44.59326912343343]}, "properties": {"name": "阳明区"}, "type": "Feature"}]}