{"type": "FeatureCollection", "features": [{"geometry": {"type": "Point", "coordinates": [114.43266118910717, 28.990582994161397]}, "properties": {"name": "修水县"}, "type": "Feature"}, {"geometry": {"type": "Point", "coordinates": [115.77860092563822, 29.12342036953709]}, "properties": {"name": "永修县"}, "type": "Feature"}, {"geometry": {"type": "Point", "coordinates": [116.2951048489477, 29.64051579662894]}, "properties": {"name": "湖口县"}, "type": "Feature"}, {"geometry": {"type": "Point", "coordinates": [116.02880425577315, 29.622723130893736]}, "properties": {"name": "庐山区"}, "type": "Feature"}, {"geometry": {"type": "Point", "coordinates": [116.61616283085893, 29.796745569089115]}, "properties": {"name": "彭泽县"}, "type": "Feature"}, {"geometry": {"type": "Point", "coordinates": [115.99911581428827, 29.72648458949443]}, "properties": {"name": "浔阳区"}, "type": "Feature"}, {"geometry": {"type": "Point", "coordinates": [115.6478173895214, 29.39852566630286]}, "properties": {"name": "德安县"}, "type": "Feature"}, {"geometry": {"type": "Point", "coordinates": [116.33462659882441, 29.37852166610593]}, "properties": {"name": "都昌县"}, "type": "Feature"}, {"geometry": {"type": "Point", "coordinates": [115.86016180605563, 29.64699976734033]}, "properties": {"name": "九江县"}, "type": "Feature"}, {"geometry": {"type": "Point", "coordinates": [115.44244317750746, 29.620046169778924]}, "properties": {"name": "瑞昌市"}, "type": "Feature"}, {"geometry": {"type": "Point", "coordinates": [114.97878556223688, 29.288866177218896]}, "properties": {"name": "武宁县"}, "type": "Feature"}, {"geometry": {"type": "Point", "coordinates": [115.9481179207232, 29.36064782081308]}, "properties": {"name": "星子县"}, "type": "Feature"}]}