{"type": "FeatureCollection", "features": [{"geometry": {"type": "Point", "coordinates": [118.1664663756522, 39.665577566788656]}, "properties": {"name": "路北区"}, "type": "Feature"}, {"geometry": {"type": "Point", "coordinates": [118.18083685353734, 39.58687997703616]}, "properties": {"name": "路南区"}, "type": "Feature"}, {"geometry": {"type": "Point", "coordinates": [118.04313516700776, 39.7944411246528]}, "properties": {"name": "丰润区"}, "type": "Feature"}, {"geometry": {"type": "Point", "coordinates": [118.43475638339146, 39.69835950401452]}, "properties": {"name": "古冶区"}, "type": "Feature"}, {"geometry": {"type": "Point", "coordinates": [118.26680990736783, 39.71044934087157]}, "properties": {"name": "开平区"}, "type": "Feature"}, {"geometry": {"type": "Point", "coordinates": [118.97879741467011, 39.35169142933796]}, "properties": {"name": "乐亭县"}, "type": "Feature"}, {"geometry": {"type": "Point", "coordinates": [118.55538891036603, 39.791511385268834]}, "properties": {"name": "滦县"}, "type": "Feature"}, {"geometry": {"type": "Point", "coordinates": [118.68393083200021, 40.02977556125871]}, "properties": {"name": "迁安市"}, "type": "Feature"}, {"geometry": {"type": "Point", "coordinates": [118.37106099732812, 40.22835676808688]}, "properties": {"name": "迁西县"}, "type": "Feature"}, {"geometry": {"type": "Point", "coordinates": [117.7354033932728, 39.77811027910754]}, "properties": {"name": "玉田县"}, "type": "Feature"}, {"geometry": {"type": "Point", "coordinates": [117.91589867116468, 40.13477597764066]}, "properties": {"name": "遵化市"}, "type": "Feature"}, {"geometry": {"type": "Point", "coordinates": [118.14635850351995, 39.39365737233086]}, "properties": {"name": "丰南区"}, "type": "Feature"}, {"geometry": {"type": "Point", "coordinates": [118.54048946863067, 39.363059877268064]}, "properties": {"name": "滦南县"}, "type": "Feature"}, {"geometry": {"type": "Point", "coordinates": [118.42106872407028, 39.20482404877869]}, "properties": {"name": "曹妃甸区"}, "type": "Feature"}]}