{"type": "FeatureCollection", "features": [{"geometry": {"type": "Point", "coordinates": [116.3861454632219, 38.08004948863948]}, "properties": {"name": "泊头市"}, "type": "Feature"}, {"geometry": {"type": "Point", "coordinates": [116.85718116907847, 38.295526934677554]}, "properties": {"name": "沧县"}, "type": "Feature"}, {"geometry": {"type": "Point", "coordinates": [116.66723308764396, 37.86593217768229]}, "properties": {"name": "东光县"}, "type": "Feature"}, {"geometry": {"type": "Point", "coordinates": [117.53560419578412, 38.11755058858302]}, "properties": {"name": "海兴县"}, "type": "Feature"}, {"geometry": {"type": "Point", "coordinates": [116.27461218552475, 38.48199403840123]}, "properties": {"name": "河间市"}, "type": "Feature"}, {"geometry": {"type": "Point", "coordinates": [117.420274653155, 38.382426294705574]}, "properties": {"name": "黄骅市"}, "type": "Feature"}, {"geometry": {"type": "Point", "coordinates": [117.16107029008165, 38.10473963543112]}, "properties": {"name": "孟村回族自治县"}, "type": "Feature"}, {"geometry": {"type": "Point", "coordinates": [116.82863904700778, 38.01743999601703]}, "properties": {"name": "南皮县"}, "type": "Feature"}, {"geometry": {"type": "Point", "coordinates": [116.81891219725946, 38.55469194504447]}, "properties": {"name": "青县"}, "type": "Feature"}, {"geometry": {"type": "Point", "coordinates": [116.1500904500423, 38.72993713137705]}, "properties": {"name": "任丘市"}, "type": "Feature"}, {"geometry": {"type": "Point", "coordinates": [115.87277558331701, 38.42949044571538]}, "properties": {"name": "肃宁县"}, "type": "Feature"}, {"geometry": {"type": "Point", "coordinates": [116.48830705795223, 37.660863709145154]}, "properties": {"name": "吴桥县"}, "type": "Feature"}, {"geometry": {"type": "Point", "coordinates": [116.14028564689666, 38.23117877090208]}, "properties": {"name": "献县"}, "type": "Feature"}, {"geometry": {"type": "Point", "coordinates": [116.88777755481489, 38.30068195923823]}, "properties": {"name": "新华区"}, "type": "Feature"}, {"geometry": {"type": "Point", "coordinates": [117.23761314140152, 37.97275865182957]}, "properties": {"name": "盐山县"}, "type": "Feature"}, {"geometry": {"type": "Point", "coordinates": [116.82155770293282, 38.30462628582179]}, "properties": {"name": "运河区"}, "type": "Feature"}]}