{"type": "FeatureCollection", "features": [{"geometry": {"type": "Point", "coordinates": [114.60456501098477, 37.622702284491425]}, "properties": {"name": "高邑县"}, "type": "Feature"}, {"geometry": {"type": "Point", "coordinates": [114.60086482749847, 38.078177346409376]}, "properties": {"name": "长安区"}, "type": "Feature"}, {"geometry": {"type": "Point", "coordinates": [115.10334171977273, 37.98306968525516]}, "properties": {"name": "晋州市"}, "type": "Feature"}, {"geometry": {"type": "Point", "coordinates": [114.04856606512095, 38.07065637240194]}, "properties": {"name": "井陉矿区"}, "type": "Feature"}, {"geometry": {"type": "Point", "coordinates": [114.0662031900428, 38.00161908723374]}, "properties": {"name": "井陉县"}, "type": "Feature"}, {"geometry": {"type": "Point", "coordinates": [114.1661438882439, 38.506638993141244]}, "properties": {"name": "灵寿县"}, "type": "Feature"}, {"geometry": {"type": "Point", "coordinates": [114.34675372591032, 38.05484517679482]}, "properties": {"name": "鹿泉市"}, "type": "Feature"}, {"geometry": {"type": "Point", "coordinates": [113.86672507864134, 38.393562284363625]}, "properties": {"name": "平山县"}, "type": "Feature"}, {"geometry": {"type": "Point", "coordinates": [114.4986021763442, 38.05973765603493]}, "properties": {"name": "桥东区"}, "type": "Feature"}, {"geometry": {"type": "Point", "coordinates": [114.43933515113018, 38.02280512359477]}, "properties": {"name": "桥西区"}, "type": "Feature"}, {"geometry": {"type": "Point", "coordinates": [115.23465384593914, 38.18320544290444]}, "properties": {"name": "深泽县"}, "type": "Feature"}, {"geometry": {"type": "Point", "coordinates": [114.97032792440709, 38.20838048439825]}, "properties": {"name": "无极县"}, "type": "Feature"}, {"geometry": {"type": "Point", "coordinates": [115.29624722098674, 37.91819381947693]}, "properties": {"name": "辛集市"}, "type": "Feature"}, {"geometry": {"type": "Point", "coordinates": [114.44143127473585, 38.10705362876304]}, "properties": {"name": "新华区"}, "type": "Feature"}, {"geometry": {"type": "Point", "coordinates": [114.70323740244278, 38.3598982665809]}, "properties": {"name": "新乐市"}, "type": "Feature"}, {"geometry": {"type": "Point", "coordinates": [114.43379083355237, 38.54105661541011]}, "properties": {"name": "行唐县"}, "type": "Feature"}, {"geometry": {"type": "Point", "coordinates": [114.57539848647005, 37.99879311047557]}, "properties": {"name": "裕华区"}, "type": "Feature"}, {"geometry": {"type": "Point", "coordinates": [114.4282436378635, 37.810111949704094]}, "properties": {"name": "元氏县"}, "type": "Feature"}, {"geometry": {"type": "Point", "coordinates": [114.26167351253245, 37.62131510516576]}, "properties": {"name": "赞皇县"}, "type": "Feature"}, {"geometry": {"type": "Point", "coordinates": [114.80292668902386, 37.75094202956834]}, "properties": {"name": "赵县"}, "type": "Feature"}, {"geometry": {"type": "Point", "coordinates": [114.58304123355872, 38.258425456066895]}, "properties": {"name": "正定县"}, "type": "Feature"}, {"geometry": {"type": "Point", "coordinates": [114.78763322389055, 38.090170520731824]}, "properties": {"name": "藁城市"}, "type": "Feature"}, {"geometry": {"type": "Point", "coordinates": [114.61208937867772, 37.89522680481757]}, "properties": {"name": "栾城县"}, "type": "Feature"}]}