{"type": "FeatureCollection", "features": [{"geometry": {"type": "Point", "coordinates": [119.46979028347951, 39.85321719678886]}, "properties": {"name": "北戴河区"}, "type": "Feature"}, {"geometry": {"type": "Point", "coordinates": [119.1338113864666, 39.57117775477802]}, "properties": {"name": "昌黎县"}, "type": "Feature"}, {"geometry": {"type": "Point", "coordinates": [119.41739849074928, 40.03066684865254]}, "properties": {"name": "抚宁县"}, "type": "Feature"}, {"geometry": {"type": "Point", "coordinates": [119.58423574274579, 39.96796264078114]}, "properties": {"name": "海港区"}, "type": "Feature"}, {"geometry": {"type": "Point", "coordinates": [118.97479271499732, 39.93941905997284]}, "properties": {"name": "卢龙县"}, "type": "Feature"}, {"geometry": {"type": "Point", "coordinates": [119.1406969567971, 40.35759472211315]}, "properties": {"name": "青龙满族自治县"}, "type": "Feature"}, {"geometry": {"type": "Point", "coordinates": [119.73900580506688, 40.036517842531225]}, "properties": {"name": "山海关区"}, "type": "Feature"}]}