{"type": "FeatureCollection", "features": [{"geometry": {"type": "Point", "coordinates": [116.22508989928811, 37.656287900958446]}, "properties": {"name": "景县"}, "type": "Feature"}, {"geometry": {"type": "Point", "coordinates": [115.4854758532389, 38.25223959163457]}, "properties": {"name": "安平县"}, "type": "Feature"}, {"geometry": {"type": "Point", "coordinates": [116.28331658285441, 37.885660819210855]}, "properties": {"name": "阜城县"}, "type": "Feature"}, {"geometry": {"type": "Point", "coordinates": [115.987541026802, 37.34501925596304]}, "properties": {"name": "故城县"}, "type": "Feature"}, {"geometry": {"type": "Point", "coordinates": [115.43570432733854, 37.543763774617744]}, "properties": {"name": "冀州市"}, "type": "Feature"}, {"geometry": {"type": "Point", "coordinates": [115.7348916891356, 38.23442057834836]}, "properties": {"name": "饶阳县"}, "type": "Feature"}, {"geometry": {"type": "Point", "coordinates": [115.55865851559277, 37.9381789450866]}, "properties": {"name": "深州市"}, "type": "Feature"}, {"geometry": {"type": "Point", "coordinates": [115.60524836603406, 37.72502344281001]}, "properties": {"name": "桃城区"}, "type": "Feature"}, {"geometry": {"type": "Point", "coordinates": [115.92908528404327, 38.023084006172]}, "properties": {"name": "武强县"}, "type": "Feature"}, {"geometry": {"type": "Point", "coordinates": [115.95530592383328, 37.85273194707115]}, "properties": {"name": "武邑县"}, "type": "Feature"}, {"geometry": {"type": "Point", "coordinates": [115.74322212869684, 37.439440182069845]}, "properties": {"name": "枣强县"}, "type": "Feature"}]}