{"type": "FeatureCollection", "features": [{"geometry": {"type": "Point", "coordinates": [119.90547553749381, 31.795135612640713]}, "properties": {"name": "钟楼区"}, "type": "Feature"}, {"geometry": {"type": "Point", "coordinates": [119.36948376330731, 31.42613214832187]}, "properties": {"name": "溧阳市"}, "type": "Feature"}, {"geometry": {"type": "Point", "coordinates": [119.4791017937534, 31.725760791919065]}, "properties": {"name": "金坛市"}, "type": "Feature"}, {"geometry": {"type": "Point", "coordinates": [120.0461942142467, 31.753938956090867]}, "properties": {"name": "戚墅堰区"}, "type": "Feature"}, {"geometry": {"type": "Point", "coordinates": [120.00023643545805, 31.770463750827233]}, "properties": {"name": "天宁区"}, "type": "Feature"}, {"geometry": {"type": "Point", "coordinates": [119.93577805386894, 31.666851257098177]}, "properties": {"name": "武进区"}, "type": "Feature"}, {"geometry": {"type": "Point", "coordinates": [119.91677792213002, 31.90536278970421]}, "properties": {"name": "新北区"}, "type": "Feature"}]}