{"type": "FeatureCollection", "features": [{"geometry": {"type": "Point", "coordinates": [120.27754413306337, 31.599779220383393]}, "properties": {"name": "北塘区"}, "type": "Feature"}, {"geometry": {"type": "Point", "coordinates": [120.25137679943217, 31.49922107235633]}, "properties": {"name": "滨湖区"}, "type": "Feature"}, {"geometry": {"type": "Point", "coordinates": [120.31761696707568, 31.59108936428738]}, "properties": {"name": "崇安区"}, "type": "Feature"}, {"geometry": {"type": "Point", "coordinates": [120.21886252677483, 31.64576596488013]}, "properties": {"name": "惠山区"}, "type": "Feature"}, {"geometry": {"type": "Point", "coordinates": [120.28614905004008, 31.832445818196437]}, "properties": {"name": "江阴市"}, "type": "Feature"}, {"geometry": {"type": "Point", "coordinates": [120.30214762190504, 31.55239782737086]}, "properties": {"name": "南长区"}, "type": "Feature"}, {"geometry": {"type": "Point", "coordinates": [120.47839296140513, 31.601549713190337]}, "properties": {"name": "锡山区"}, "type": "Feature"}, {"geometry": {"type": "Point", "coordinates": [119.74217890705314, 31.377035639454316]}, "properties": {"name": "宜兴市"}, "type": "Feature"}]}