{"type": "FeatureCollection", "features": [{"geometry": {"type": "Point", "coordinates": [123.7945777559592, 41.865478257458456]}, "properties": {"name": "望花区"}, "type": "Feature"}, {"geometry": {"type": "Point", "coordinates": [124.80707087076246, 41.64028013323264]}, "properties": {"name": "新宾满族自治县"}, "type": "Feature"}, {"geometry": {"type": "Point", "coordinates": [123.91718906541026, 41.85731132381333]}, "properties": {"name": "新抚区"}, "type": "Feature"}, {"geometry": {"type": "Point", "coordinates": [123.99852227788578, 41.80404299665995]}, "properties": {"name": "东洲区"}, "type": "Feature"}, {"geometry": {"type": "Point", "coordinates": [124.12401154537149, 41.74315932942653]}, "properties": {"name": "抚顺县"}, "type": "Feature"}, {"geometry": {"type": "Point", "coordinates": [124.91573669692953, 42.15300475846082]}, "properties": {"name": "清原满族自治县"}, "type": "Feature"}, {"geometry": {"type": "Point", "coordinates": [123.91354870577189, 41.940199620841625]}, "properties": {"name": "顺城区"}, "type": "Feature"}]}