{"type": "FeatureCollection", "features": [{"geometry": {"type": "Point", "coordinates": [121.18256430410986, 41.12636469499906]}, "properties": {"name": "凌河区"}, "type": "Feature"}, {"geometry": {"type": "Point", "coordinates": [121.09836511399917, 41.13862198571988]}, "properties": {"name": "古塔区"}, "type": "Feature"}, {"geometry": {"type": "Point", "coordinates": [121.14579737964328, 41.15551252822241]}, "properties": {"name": "太和区"}, "type": "Feature"}, {"geometry": {"type": "Point", "coordinates": [122.27708291114276, 41.813625085621254]}, "properties": {"name": "黑山县"}, "type": "Feature"}, {"geometry": {"type": "Point", "coordinates": [121.20142501834458, 41.15092066893334]}, "properties": {"name": "凌海市"}, "type": "Feature"}, {"geometry": {"type": "Point", "coordinates": [121.86730701491221, 41.52794362057114]}, "properties": {"name": "北镇市"}, "type": "Feature"}, {"geometry": {"type": "Point", "coordinates": [121.30727196653271, 41.53447975511396]}, "properties": {"name": "义县"}, "type": "Feature"}]}