{"type": "FeatureCollection", "features": [{"geometry": {"type": "Point", "coordinates": [122.6784877422145, 40.86687806439744]}, "properties": {"name": "海城市"}, "type": "Feature"}, {"geometry": {"type": "Point", "coordinates": [123.02239885299588, 41.1639683781037]}, "properties": {"name": "立山区"}, "type": "Feature"}, {"geometry": {"type": "Point", "coordinates": [123.01894402567828, 41.09362442395228]}, "properties": {"name": "千山区"}, "type": "Feature"}, {"geometry": {"type": "Point", "coordinates": [122.47123635579737, 41.30867159011935]}, "properties": {"name": "台安县"}, "type": "Feature"}, {"geometry": {"type": "Point", "coordinates": [123.00484466707526, 41.108710621116934]}, "properties": {"name": "铁东区"}, "type": "Feature"}, {"geometry": {"type": "Point", "coordinates": [122.98020319883199, 41.13455354050635]}, "properties": {"name": "铁西区"}, "type": "Feature"}, {"geometry": {"type": "Point", "coordinates": [123.34868338409566, 40.401482205609916]}, "properties": {"name": "岫岩满族自治县"}, "type": "Feature"}]}