{"type": "FeatureCollection", "features": [{"geometry": {"type": "Point", "coordinates": [111.46585844203739, 27.66350771572345]}, "properties": {"name": "冷水江市"}, "type": "Feature"}, {"geometry": {"type": "Point", "coordinates": [111.79034680955732, 27.718431264247176]}, "properties": {"name": "涟源市"}, "type": "Feature"}, {"geometry": {"type": "Point", "coordinates": [111.99753501282514, 27.752070477423914]}, "properties": {"name": "娄星区"}, "type": "Feature"}, {"geometry": {"type": "Point", "coordinates": [112.18589530670128, 27.459098981954003]}, "properties": {"name": "双峰县"}, "type": "Feature"}, {"geometry": {"type": "Point", "coordinates": [111.30903060092807, 27.88664645962644]}, "properties": {"name": "新化县"}, "type": "Feature"}]}