{"type": "FeatureCollection", "features": [{"geometry": {"type": "Point", "coordinates": [111.6066142116487, 25.52558663444358]}, "properties": {"name": "道县"}, "type": "Feature"}, {"geometry": {"type": "Point", "coordinates": [111.32134779251143, 26.48491869511449]}, "properties": {"name": "东安县"}, "type": "Feature"}, {"geometry": {"type": "Point", "coordinates": [111.75338974828699, 24.997137717739964]}, "properties": {"name": "江华瑶族自治县"}, "type": "Feature"}, {"geometry": {"type": "Point", "coordinates": [111.25404843472342, 25.1708263238949]}, "properties": {"name": "江永县"}, "type": "Feature"}, {"geometry": {"type": "Point", "coordinates": [112.19215185294283, 25.346523748433984]}, "properties": {"name": "蓝山县"}, "type": "Feature"}, {"geometry": {"type": "Point", "coordinates": [111.59742192775147, 26.51659618259375]}, "properties": {"name": "冷水滩区"}, "type": "Feature"}, {"geometry": {"type": "Point", "coordinates": [111.56067322110958, 26.126588756535874]}, "properties": {"name": "零陵区"}, "type": "Feature"}, {"geometry": {"type": "Point", "coordinates": [112.01253460006492, 25.692202757490616]}, "properties": {"name": "宁远县"}, "type": "Feature"}, {"geometry": {"type": "Point", "coordinates": [111.96133506671094, 26.476076046152482]}, "properties": {"name": "祁阳县"}, "type": "Feature"}, {"geometry": {"type": "Point", "coordinates": [111.66270309096032, 25.914411510629275]}, "properties": {"name": "双牌县"}, "type": "Feature"}, {"geometry": {"type": "Point", "coordinates": [112.19744954877879, 25.854518269070155]}, "properties": {"name": "新田县"}, "type": "Feature"}]}