{"type": "FeatureCollection", "features": [{"geometry": {"type": "Point", "coordinates": [111.42322455347775, 27.25854747896537]}, "properties": {"name": "北塔区"}, "type": "Feature"}, {"geometry": {"type": "Point", "coordinates": [110.31852159688289, 26.36056381302596]}, "properties": {"name": "城步苗族自治县"}, "type": "Feature"}, {"geometry": {"type": "Point", "coordinates": [111.47880752392497, 27.1616515856819]}, "properties": {"name": "大祥区"}, "type": "Feature"}, {"geometry": {"type": "Point", "coordinates": [110.78037055446413, 26.809667231939354]}, "properties": {"name": "武冈市"}, "type": "Feature"}, {"geometry": {"type": "Point", "coordinates": [110.52595545741767, 27.066237054218835]}, "properties": {"name": "洞口县"}, "type": "Feature"}, {"geometry": {"type": "Point", "coordinates": [110.96545425832903, 27.353609039499087]}, "properties": {"name": "隆回县"}, "type": "Feature"}, {"geometry": {"type": "Point", "coordinates": [111.81334386136692, 27.206309683551652]}, "properties": {"name": "邵东县"}, "type": "Feature"}, {"geometry": {"type": "Point", "coordinates": [111.32230905283554, 26.984101687517818]}, "properties": {"name": "邵阳县"}, "type": "Feature"}, {"geometry": {"type": "Point", "coordinates": [111.53197073804488, 27.25973811812]}, "properties": {"name": "双清区"}, "type": "Feature"}, {"geometry": {"type": "Point", "coordinates": [110.16902260112153, 26.740854552143187]}, "properties": {"name": "绥宁县"}, "type": "Feature"}, {"geometry": {"type": "Point", "coordinates": [110.91668970699627, 26.56879283375156]}, "properties": {"name": "新宁县"}, "type": "Feature"}, {"geometry": {"type": "Point", "coordinates": [111.50070873459008, 27.44557753616807]}, "properties": {"name": "新邵县"}, "type": "Feature"}]}