{"type": "FeatureCollection", "features": [{"geometry": {"type": "Point", "coordinates": [113.11893191262132, 26.204539495514382]}, "properties": {"name": "永兴县"}, "type": "Feature"}, {"geometry": {"type": "Point", "coordinates": [113.36828504362786, 26.5837473564623]}, "properties": {"name": "安仁县"}, "type": "Feature"}, {"geometry": {"type": "Point", "coordinates": [112.8613482030777, 25.633703883031465]}, "properties": {"name": "北湖区"}, "type": "Feature"}, {"geometry": {"type": "Point", "coordinates": [113.90471431644228, 25.988144401823494]}, "properties": {"name": "桂东县"}, "type": "Feature"}, {"geometry": {"type": "Point", "coordinates": [112.6186068196217, 25.83130346135875]}, "properties": {"name": "桂阳县"}, "type": "Feature"}, {"geometry": {"type": "Point", "coordinates": [112.39769936518006, 25.60514653420013]}, "properties": {"name": "嘉禾县"}, "type": "Feature"}, {"geometry": {"type": "Point", "coordinates": [112.55555941972614, 25.36612667253172]}, "properties": {"name": "临武县"}, "type": "Feature"}, {"geometry": {"type": "Point", "coordinates": [113.64317621276204, 25.59150435234872]}, "properties": {"name": "汝城县"}, "type": "Feature"}, {"geometry": {"type": "Point", "coordinates": [113.04741690740752, 25.783577836520564]}, "properties": {"name": "苏仙区"}, "type": "Feature"}, {"geometry": {"type": "Point", "coordinates": [112.95627939082654, 25.315384733517007]}, "properties": {"name": "宜章县"}, "type": "Feature"}, {"geometry": {"type": "Point", "coordinates": [113.44119802510734, 25.923567296422977]}, "properties": {"name": "资兴市"}, "type": "Feature"}]}