{"type": "FeatureCollection", "features": [{"geometry": {"type": "Point", "coordinates": [124.71506216126977, 43.7472471625579]}, "properties": {"name": "公主岭市"}, "type": "Feature"}, {"geometry": {"type": "Point", "coordinates": [124.29946596306613, 43.423160806267916]}, "properties": {"name": "梨树县"}, "type": "Feature"}, {"geometry": {"type": "Point", "coordinates": [123.63979395577782, 43.718489891525024]}, "properties": {"name": "双辽市"}, "type": "Feature"}, {"geometry": {"type": "Point", "coordinates": [124.56883201094188, 43.04664490157709]}, "properties": {"name": "铁东区"}, "type": "Feature"}, {"geometry": {"type": "Point", "coordinates": [124.34335957658955, 43.19698843002683]}, "properties": {"name": "铁西区"}, "type": "Feature"}, {"geometry": {"type": "Point", "coordinates": [125.32337389664502, 43.32873816908818]}, "properties": {"name": "伊通满族自治县"}, "type": "Feature"}]}