{"type": "FeatureCollection", "features": [{"geometry": {"type": "Point", "coordinates": [123.74778942387822, 45.46639194162405]}, "properties": {"name": "大安市"}, "type": "Feature"}, {"geometry": {"type": "Point", "coordinates": [122.68669989279438, 44.82513104627749]}, "properties": {"name": "通榆县"}, "type": "Feature"}, {"geometry": {"type": "Point", "coordinates": [123.5988509147261, 45.97900037643943]}, "properties": {"name": "镇赉县"}, "type": "Feature"}, {"geometry": {"type": "Point", "coordinates": [122.76841700714002, 45.61370060872036]}, "properties": {"name": "洮北区"}, "type": "Feature"}, {"geometry": {"type": "Point", "coordinates": [122.43260089400557, 45.54602511587445]}, "properties": {"name": "洮南市"}, "type": "Feature"}]}