{"type": "FeatureCollection", "features": [{"geometry": {"type": "Point", "coordinates": [125.95532740517405, 41.68629264725826]}, "properties": {"name": "东昌区"}, "type": "Feature"}, {"geometry": {"type": "Point", "coordinates": [126.14201459268519, 41.76512921846291]}, "properties": {"name": "二道江区"}, "type": "Feature"}, {"geometry": {"type": "Point", "coordinates": [126.36113708318499, 42.55886698153813]}, "properties": {"name": "辉南县"}, "type": "Feature"}, {"geometry": {"type": "Point", "coordinates": [126.03712270706723, 41.23542695925784]}, "properties": {"name": "集安市"}, "type": "Feature"}, {"geometry": {"type": "Point", "coordinates": [125.87233730548992, 42.14724435562505]}, "properties": {"name": "柳河县"}, "type": "Feature"}, {"geometry": {"type": "Point", "coordinates": [125.67475812680676, 42.52005913051085]}, "properties": {"name": "梅河口市"}, "type": "Feature"}, {"geometry": {"type": "Point", "coordinates": [125.91384808390622, 41.72115426342689]}, "properties": {"name": "通化县"}, "type": "Feature"}]}