{"type": "FeatureCollection", "features": [{"geometry": {"type": "Point", "coordinates": [108.78686934564946, 25.69613915799887]}, "properties": {"name": "从江县"}, "type": "Feature"}, {"geometry": {"type": "Point", "coordinates": [107.89989714252725, 26.224993817318893]}, "properties": {"name": "丹寨县"}, "type": "Feature"}, {"geometry": {"type": "Point", "coordinates": [107.86295754456658, 26.968975427328754]}, "properties": {"name": "黄平县"}, "type": "Feature"}, {"geometry": {"type": "Point", "coordinates": [108.63310713608976, 26.64429323736873]}, "properties": {"name": "剑河县"}, "type": "Feature"}, {"geometry": {"type": "Point", "coordinates": [109.08846576031495, 26.553617277856752]}, "properties": {"name": "锦屏县"}, "type": "Feature"}, {"geometry": {"type": "Point", "coordinates": [108.73121420508602, 27.361869184399144]}, "properties": {"name": "岑巩县"}, "type": "Feature"}, {"geometry": {"type": "Point", "coordinates": [107.95521034899397, 26.622303335222256]}, "properties": {"name": "凯里市"}, "type": "Feature"}, {"geometry": {"type": "Point", "coordinates": [108.14874539943068, 26.326462718443373]}, "properties": {"name": "雷山县"}, "type": "Feature"}, {"geometry": {"type": "Point", "coordinates": [109.06951201582292, 26.17443810108301]}, "properties": {"name": "黎平县"}, "type": "Feature"}, {"geometry": {"type": "Point", "coordinates": [107.55457489942813, 26.487074247883214]}, "properties": {"name": "麻江县"}, "type": "Feature"}, {"geometry": {"type": "Point", "coordinates": [108.78582284011434, 26.942178219669287]}, "properties": {"name": "三穗县"}, "type": "Feature"}, {"geometry": {"type": "Point", "coordinates": [108.1805088170958, 27.023099545198495]}, "properties": {"name": "施秉县"}, "type": "Feature"}, {"geometry": {"type": "Point", "coordinates": [108.30359886125603, 26.636862555862493]}, "properties": {"name": "台江县"}, "type": "Feature"}, {"geometry": {"type": "Point", "coordinates": [109.29801120916942, 26.903026473734702]}, "properties": {"name": "天柱县"}, "type": "Feature"}, {"geometry": {"type": "Point", "coordinates": [108.47914945509224, 27.0990375398487]}, "properties": {"name": "镇远县"}, "type": "Feature"}, {"geometry": {"type": "Point", "coordinates": [108.40229840139793, 26.032340799496602]}, "properties": {"name": "榕江县"}, "type": "Feature"}]}