{"type": "FeatureCollection", "features": [{"geometry": {"type": "Point", "coordinates": [105.33087822744515, 25.113921765282132]}, "properties": {"name": "安龙县"}, "type": "Feature"}, {"geometry": {"type": "Point", "coordinates": [105.79526221270976, 24.969872564115505]}, "properties": {"name": "册亨县"}, "type": "Feature"}, {"geometry": {"type": "Point", "coordinates": [104.99550408605963, 25.690209997487553]}, "properties": {"name": "普安县"}, "type": "Feature"}, {"geometry": {"type": "Point", "coordinates": [105.19118954517003, 25.844265834217307]}, "properties": {"name": "晴隆县"}, "type": "Feature"}, {"geometry": {"type": "Point", "coordinates": [106.16038611117398, 25.295832062174984]}, "properties": {"name": "望谟县"}, "type": "Feature"}, {"geometry": {"type": "Point", "coordinates": [105.23154422630606, 25.492966018578365]}, "properties": {"name": "兴仁县"}, "type": "Feature"}, {"geometry": {"type": "Point", "coordinates": [104.86415438773908, 25.068677933831697]}, "properties": {"name": "兴义市"}, "type": "Feature"}, {"geometry": {"type": "Point", "coordinates": [105.67410372825123, 25.41635545399731]}, "properties": {"name": "贞丰县"}, "type": "Feature"}]}