{"type": "FeatureCollection", "features": [{"geometry": {"type": "Point", "coordinates": [85.17797867263248, 30.77240447931084]}, "properties": {"name": "措勤县"}, "type": "Feature"}, {"geometry": {"type": "Point", "coordinates": [80.30476092223121, 32.00392387546919]}, "properties": {"name": "噶尔县"}, "type": "Feature"}, {"geometry": {"type": "Point", "coordinates": [83.95049554167993, 33.60765038222678]}, "properties": {"name": "改则县"}, "type": "Feature"}, {"geometry": {"type": "Point", "coordinates": [81.97295017887639, 31.85601230996113]}, "properties": {"name": "革吉县"}, "type": "Feature"}, {"geometry": {"type": "Point", "coordinates": [81.66238924256626, 30.64077688716443]}, "properties": {"name": "普兰县"}, "type": "Feature"}, {"geometry": {"type": "Point", "coordinates": [80.71672654903898, 34.01558173099432]}, "properties": {"name": "日土县"}, "type": "Feature"}, {"geometry": {"type": "Point", "coordinates": [79.62848442101681, 31.56558203512503]}, "properties": {"name": "札达县"}, "type": "Feature"}]}