{"type": "FeatureCollection", "features": [{"geometry": {"type": "Point", "coordinates": [113.114107, 36.187896]}, "properties": {"name": "潞州区"}, "type": "Feature"}, {"geometry": {"type": "Point", "coordinates": [113.056679, 36.052438]}, "properties": {"name": "上党区"}, "type": "Feature"}, {"geometry": {"type": "Point", "coordinates": [112.892741, 36.314072]}, "properties": {"name": "屯留区"}, "type": "Feature"}, {"geometry": {"type": "Point", "coordinates": [113.223245, 36.332233]}, "properties": {"name": "潞城区"}, "type": "Feature"}, {"geometry": {"type": "Point", "coordinates": [113.050094, 36.532854]}, "properties": {"name": "襄垣县"}, "type": "Feature"}, {"geometry": {"type": "Point", "coordinates": [113.438791, 36.200202]}, "properties": {"name": "平顺县"}, "type": "Feature"}, {"geometry": {"type": "Point", "coordinates": [113.387366, 36.502971]}, "properties": {"name": "黎城县"}, "type": "Feature"}, {"geometry": {"type": "Point", "coordinates": [113.206138, 36.110938]}, "properties": {"name": "壶关县"}, "type": "Feature"}, {"geometry": {"type": "Point", "coordinates": [112.884656, 36.119484]}, "properties": {"name": "长子县"}, "type": "Feature"}, {"geometry": {"type": "Point", "coordinates": [112.8653, 36.834315]}, "properties": {"name": "武乡县"}, "type": "Feature"}, {"geometry": {"type": "Point", "coordinates": [112.70138, 36.757123]}, "properties": {"name": "沁县"}, "type": "Feature"}, {"geometry": {"type": "Point", "coordinates": [112.340878, 36.500777]}, "properties": {"name": "沁源县"}, "type": "Feature"}]}